[{"name":"Bombo","country":"Uganda","coords":{"type":"Point","coordinates":[32.533299524864844,0.583299105614628]}},{"name":"Fort Portal","country":"Uganda","coords":{"type":"Point","coordinates":[30.27500161597942,0.671004121125236]}},{"name":"Potenza","country":"Italy","coords":{"type":"Point","coordinates":[15.798996495640267,40.642002130098206]}},{"name":"Campobasso","country":"Italy","coords":{"type":"Point","coordinates":[14.655996558921856,41.56299911864397]}},{"name":"Aosta","country":"Italy","coords":{"type":"Point","coordinates":[7.315002595706176,45.7370010670723]}},{"name":"Mariehamn","country":"Finland","coords":{"type":"Point","coordinates":[19.949004471869102,60.09699618489543]}},{"name":"Ramallah","country":"Indeterminate","coords":{"type":"Point","coordinates":[35.206209378189556,31.90294475142406]}},{"name":"Vatican City","country":"Vatican (Holy Sea)","coords":{"type":"Point","coordinates":[12.453386544971766,41.903282179960115]}},{"name":"Poitier","country":"French Republic","coords":{"type":"Point","coordinates":[0.333276528534554,46.58329225573658]}},{"name":"Clermont-Ferrand","country":"French Republic","coords":{"type":"Point","coordinates":[3.080008095928406,45.779982115759424]}},{"name":"Besancon","country":"French Republic","coords":{"type":"Point","coordinates":[6.030008909742378,47.229996967653335]}},{"name":"Artigas Base","country":"Indeterminate","coords":{"type":"Point","coordinates":[-58.86386407233991,-62.17388669198187]}},{"name":"Chipata","country":"Zambia","coords":{"type":"Point","coordinates":[32.640012571958096,-13.62956988643134]}},{"name":"Jinja","country":"Uganda","coords":{"type":"Point","coordinates":[33.19992671584066,0.440424010109325]}},{"name":"Arua","country":"Uganda","coords":{"type":"Point","coordinates":[30.900015420258512,3.020369892281053]}},{"name":"Mbale","country":"Uganda","coords":{"type":"Point","coordinates":[34.16999670282365,1.090410175476563]}},{"name":"Moroto","country":"Uganda","coords":{"type":"Point","coordinates":[34.639993854518195,2.540347512721951]}},{"name":"Masaka","country":"Uganda","coords":{"type":"Point","coordinates":[31.729990599298333,-0.329606507471851]}},{"name":"Mbarara","country":"Uganda","coords":{"type":"Point","coordinates":[30.650004840830377,-0.599615866196928]}},{"name":"Otjiwarongo","country":"Namibia","coords":{"type":"Point","coordinates":[16.64000728218059,-20.459540589583696]}},{"name":"Bologna","country":"Italy","coords":{"type":"Point","coordinates":[11.34002070989385,44.50042197578034]}},{"name":"Cagliari","country":"Italy","coords":{"type":"Point","coordinates":[9.103981484624342,39.22239788721748]}},{"name":"Catanzaro","country":"Italy","coords":{"type":"Point","coordinates":[16.60000972358671,38.90037619939079]}},{"name":"Bari","country":"Italy","coords":{"type":"Point","coordinates":[16.87275793322317,41.114220396990845]}},{"name":"L'Aquila","country":"Italy","coords":{"type":"Point","coordinates":[13.390024778912391,42.35039817206081]}},{"name":"Ancona","country":"Italy","coords":{"type":"Point","coordinates":[13.499940550397127,43.6003735545529]}},{"name":"Perugia","country":"Italy","coords":{"type":"Point","coordinates":[12.389982461200077,43.11037762356119]}},{"name":"Trieste","country":"Italy","coords":{"type":"Point","coordinates":[13.80002559271611,45.650377623571444]}},{"name":"Trento","country":"Italy","coords":{"type":"Point","coordinates":[11.119982461195036,46.08042889310451]}},{"name":"Fort-de-France","country":"French Republic","coords":{"type":"Point","coordinates":[-61.08002913577354,14.610411803134866]}},{"name":"Gifu","country":"Japan","coords":{"type":"Point","coordinates":[136.76275264398942,35.423094908686835]}},{"name":"Saint-Laurent-du-Maroni","country":"French Republic","coords":{"type":"Point","coordinates":[-54.03253458791767,5.497624080540675]}},{"name":"Caen","country":"French Republic","coords":{"type":"Point","coordinates":[-0.349989259228494,49.183753681528344]}},{"name":"Nantes","country":"French Republic","coords":{"type":"Point","coordinates":[-1.590016928504383,47.2103857615985]}},{"name":"Ajaccio","country":"French Republic","coords":{"type":"Point","coordinates":[8.728293821862565,41.92706483872587]}},{"name":"Montpellier","country":"French Republic","coords":{"type":"Point","coordinates":[3.869985716374288,43.61039878241746]}},{"name":"Dijon","country":"French Republic","coords":{"type":"Point","coordinates":[5.030018268462243,47.33040427559638]}},{"name":"Orleans","country":"French Republic","coords":{"type":"Point","coordinates":[1.900028440975916,47.90042116199186]}},{"name":"Rouen","country":"French Republic","coords":{"type":"Point","coordinates":[1.079975136936127,49.430405292857415]}},{"name":"Reims","country":"French Republic","coords":{"type":"Point","coordinates":[4.029975950749872,49.250390440968715]}},{"name":"Amiens","country":"French Republic","coords":{"type":"Point","coordinates":[2.300004026914849,49.90037660633595]}},{"name":"Nancy","country":"French Republic","coords":{"type":"Point","coordinates":[6.200024371982522,48.683680846239895]}},{"name":"Basse-terre","country":"French Republic","coords":{"type":"Point","coordinates":[-61.43998132490259,16.230390440836572]}},{"name":"Novi Sad","country":"Republic of Serbia","coords":{"type":"Point","coordinates":[19.849940550422673,45.25037619941611]}},{"name":"Banja Luka","country":"Bosnia and Herzegovina","coords":{"type":"Point","coordinates":[17.179974323198394,44.78040488593774]}},{"name":"George Town","country":"United Kingdom","coords":{"type":"Point","coordinates":[-81.3299817318831,19.280436827567485]}},{"name":"Grand Turk","country":"United Kingdom","coords":{"type":"Point","coordinates":[-71.13597863939452,21.46642742816215]}},{"name":"Douglas","country":"United Kingdom","coords":{"type":"Point","coordinates":[-4.480021404427305,54.15042726553247]}},{"name":"San Marino","country":"San Marino","coords":{"type":"Point","coordinates":[12.441770157800141,43.936095834768004]}},{"name":"Willemstad","country":"Kingdom of the Netherlands","coords":{"type":"Point","coordinates":[-69.01998376633918,12.200429706771047]}},{"name":"Oranjestad","country":"Kingdom of the Netherlands","coords":{"type":"Point","coordinates":[-70.02899194505409,12.530383726954597]}},{"name":"Vaduz","country":"Liechtenstein","coords":{"type":"Point","coordinates":[9.516669472907267,47.13372377429357]}},{"name":"Capitan Arturo Prat Station","country":"Indeterminate","coords":{"type":"Point","coordinates":[-59.68331852378873,-62.49950681696538]}},{"name":"Marambio Station","country":"Indeterminate","coords":{"type":"Point","coordinates":[-56.65001530112039,-64.23288938533165]}},{"name":"Zucchelli Station","country":"Indeterminate","coords":{"type":"Point","coordinates":[164.2190270616221,-74.61919258818159]}},{"name":"Rothera Station","country":"Indeterminate","coords":{"type":"Point","coordinates":[-68.12354054517397,-67.56477560345161]}},{"name":"Palmer Station","country":"Indeterminate","coords":{"type":"Point","coordinates":[-64.04687560264085,-64.76241335274187]}},{"name":"Base Presidente Montalva","country":"Indeterminate","coords":{"type":"Point","coordinates":[-58.90765232994511,-62.18274357463878]}},{"name":"Carlini Station","country":"Indeterminate","coords":{"type":"Point","coordinates":[-58.650475991201176,-62.224143857363856]}},{"name":"King Sejong Station","country":"Indeterminate","coords":{"type":"Point","coordinates":[-58.771598764485134,-62.22485339741286]}},{"name":"Great Wall Station","country":"Indeterminate","coords":{"type":"Point","coordinates":[-58.966695598981175,-62.21631996800585]}},{"name":"Escudero Base","country":"Indeterminate","coords":{"type":"Point","coordinates":[-58.952665818930484,-62.19496250700735]}},{"name":"Elephant Island","country":"Indeterminate","coords":{"type":"Point","coordinates":[-57.99998458009719,-61.99958901097381]}},{"name":"Scott Base","country":"Indeterminate","coords":{"type":"Point","coordinates":[166.74910234650918,-77.8469381874533]}},{"name":"McMurdo Station","country":"Indeterminate","coords":{"type":"Point","coordinates":[166.86941574553657,-77.7322823892066]}},{"name":"Zhongshan Station","country":"Indeterminate","coords":{"type":"Point","coordinates":[76.3392980814383,-69.43406299177707]}},{"name":"Vostok","country":"Indeterminate","coords":{"type":"Point","coordinates":[106.80003373110901,-78.4662841607792]}},{"name":"Peter I Island","country":"Indeterminate","coords":{"type":"Point","coordinates":[-90.59664253281083,-68.7556180727382]}},{"name":"Mirny Station","country":"Indeterminate","coords":{"type":"Point","coordinates":[93.0062884562152,-66.57552951935048]}},{"name":"Mawson Station","country":"Indeterminate","coords":{"type":"Point","coordinates":[62.87500072543173,-67.61452031754641]}},{"name":"Davis Station","country":"Indeterminate","coords":{"type":"Point","coordinates":[78.14073508941965,-68.77767438929021]}},{"name":"Concordia Research Station","country":"Indeterminate","coords":{"type":"Point","coordinates":[124.16703568430353,-74.66630938862858]}},{"name":"Casey Station","country":"Indeterminate","coords":{"type":"Point","coordinates":[110.53621397290732,-66.2860861375458]}},{"name":"AmundsenScott South Pole Station","country":"Indeterminate","coords":{"type":"Point","coordinates":[176.99445209423166,-89.99999981438727]}},{"name":"Wasa Station","country":"Indeterminate","coords":{"type":"Point","coordinates":[-13.416711061038598,-73.04961220437735]}},{"name":"Troll Station","country":"Indeterminate","coords":{"type":"Point","coordinates":[2.533323118712701,-72.01629026426906]}},{"name":"Svea Station","country":"Indeterminate","coords":{"type":"Point","coordinates":[-11.21669030907674,-74.58290362690957]}},{"name":"Novolazarevskaya Station","country":"Indeterminate","coords":{"type":"Point","coordinates":[-11.850212904777095,-71.30123474679726]}},{"name":"Neumayer Station III","country":"Indeterminate","coords":{"type":"Point","coordinates":[-7.838438004025761,-70.89039667712046]}},{"name":"Maitri Station","country":"Indeterminate","coords":{"type":"Point","coordinates":[11.73045840167407,-70.78217960227073]}},{"name":"Halley Station","country":"Indeterminate","coords":{"type":"Point","coordinates":[-26.47415669695323,-76.09226319229867]}},{"name":"Belgrano Station","country":"Indeterminate","coords":{"type":"Point","coordinates":[-34.61668318840202,-77.86632078187051]}},{"name":"Camp Sobral","country":"Indeterminate","coords":{"type":"Point","coordinates":[-40.50153152059755,-81.17908472282716]}},{"name":"Aboa Station","country":"Indeterminate","coords":{"type":"Point","coordinates":[-13.416711061038598,-75.04959348693745]}},{"name":"San Martín Station","country":"Indeterminate","coords":{"type":"Point","coordinates":[-67.09999760096696,-68.11632159563368]}},{"name":"Gen. O'Higgins Station","country":"Indeterminate","coords":{"type":"Point","coordinates":[-57.88959351849013,-63.328418229802935]}},{"name":"Esperanza Station","country":"Indeterminate","coords":{"type":"Point","coordinates":[-57.025901510412666,-63.3753286516353]}},{"name":"Orcadas Station","country":"Indeterminate","coords":{"type":"Point","coordinates":[-44.733300823533625,-60.732896302635424]}},{"name":"Signy Research Station","country":"Indeterminate","coords":{"type":"Point","coordinates":[-45.600703321451704,-60.63130814704914]}},{"name":"Dumont d'Urville Station","country":"Indeterminate","coords":{"type":"Point","coordinates":[139.9636835627877,-66.77505091020555]}},{"name":"Showa Station","country":"Indeterminate","coords":{"type":"Point","coordinates":[39.746083103304585,-69.03039248766216]}},{"name":"Gibraltar","country":"United Kingdom","coords":{"type":"Point","coordinates":[-5.378074829731531,36.1324349459648]}},{"name":"Lobamba","country":"Swaziland","coords":{"type":"Point","coordinates":[31.19999710971274,-26.466667461352472]}},{"name":"Edinburgh","country":"United Kingdom","coords":{"type":"Point","coordinates":[-3.219090618289499,55.94832785961535]}},{"name":"Cardiff","country":"United Kingdom","coords":{"type":"Point","coordinates":[-3.225007569786953,51.499994729714615]}},{"name":"Longyearbyen","country":"Kingdom of Norway","coords":{"type":"Point","coordinates":[15.549996295848075,78.21668438639699]}},{"name":"Luxembourg","country":"Luxembourg","coords":{"type":"Point","coordinates":[6.130002806227083,49.611660379121076]}},{"name":"Turin","country":"Italy","coords":{"type":"Point","coordinates":[7.668014629912079,45.072333044356526]}},{"name":"Noumea","country":"French Republic","coords":{"type":"Point","coordinates":[166.4442852031308,-22.26252776373076]}},{"name":"Matsuyama","country":"Japan","coords":{"type":"Point","coordinates":[132.76583898837453,33.84554262189664]}},{"name":"Rennes","country":"French Republic","coords":{"type":"Point","coordinates":[-1.67001204569209,48.100021381719216]}},{"name":"Toulouse","country":"French Republic","coords":{"type":"Point","coordinates":[1.447980857100617,43.621904781004275]}},{"name":"Limoges","country":"French Republic","coords":{"type":"Point","coordinates":[1.249990599176272,45.82997906400186]}},{"name":"Lille","country":"French Republic","coords":{"type":"Point","coordinates":[3.078062237315521,50.65191495355856]}},{"name":"Strasbourg","country":"French Republic","coords":{"type":"Point","coordinates":[7.75000728214502,48.579966246629965]}},{"name":"Batumi","country":"Georgia","coords":{"type":"Point","coordinates":[41.63000646847843,41.600004698750524]}},{"name":"Funchal","country":"Portugal","coords":{"type":"Point","coordinates":[-16.88003971502377,32.64998252260807]}},{"name":"El Fasher","country":"Sudan","coords":{"type":"Point","coordinates":[25.350018268543465,13.629980691477158]}},{"name":"Keetmanshoop","country":"Namibia","coords":{"type":"Point","coordinates":[18.12999385445221,-26.573896058358116]}},{"name":"Swakopmund","country":"Namibia","coords":{"type":"Point","coordinates":[14.535019489203478,-22.668863099358077]}},{"name":"Genoa","country":"Italy","coords":{"type":"Point","coordinates":[8.93003861352986,44.40998821926962]}},{"name":"Sukhumi","country":"Georgia","coords":{"type":"Point","coordinates":[41.02001786170524,43.02002138169894]}},{"name":"Palikir","country":"Federated States of Micronesia","coords":{"type":"Point","coordinates":[158.1499743237623,6.916643696007725]}},{"name":"Majuro","country":"Marshall Islands","coords":{"type":"Point","coordinates":[171.38000017574655,7.103004311216239]}},{"name":"Agana","country":"United States","coords":{"type":"Point","coordinates":[144.750017048318,13.470016295317805]}},{"name":"Funafuti","country":"Tuvalu","coords":{"type":"Point","coordinates":[179.21664709402887,-8.516651999041073]}},{"name":"Melekeok","country":"Palau","coords":{"type":"Point","coordinates":[134.62654846699218,7.487396172977981]}},{"name":"Bir Lehlou","country":"Western Sahara","coords":{"type":"Point","coordinates":[-9.652522218250112,26.119166685993378]}},{"name":"Monaco","country":"Monaco","coords":{"type":"Point","coordinates":[7.406913173465057,43.73964568785249]}},{"name":"Tarawa","country":"Kiribati","coords":{"type":"Point","coordinates":[173.01757082854942,1.338187505624603]}},{"name":"Moroni","country":"Comoros","coords":{"type":"Point","coordinates":[43.240244098693324,-11.70415769566847]}},{"name":"Macau","country":"China","coords":{"type":"Point","coordinates":[113.54504837957336,22.20299745583452]}},{"name":"Andorra","country":"Andorra","coords":{"type":"Point","coordinates":[1.51648596050552,42.5000014435459]}},{"name":"San Bernardino","country":"United States","coords":{"type":"Point","coordinates":[-117.30198008087439,34.1223295856538]}},{"name":"Bridgeport","country":"United States","coords":{"type":"Point","coordinates":[-73.20190704196108,41.1819245156953]}},{"name":"Rochester","country":"United States","coords":{"type":"Point","coordinates":[-77.62189564874956,43.17237149649736]}},{"name":"Manchester","country":"United Kingdom","coords":{"type":"Point","coordinates":[-2.249932961273487,53.502361120562284]}},{"name":"Gujranwala","country":"Pakistan","coords":{"type":"Point","coordinates":[74.1830760722354,32.16237169990376]}},{"name":"Incheon","country":"Korea, South","coords":{"type":"Point","coordinates":[126.6402875796067,37.47809374582357]}},{"name":"Benin City","country":"Nigeria","coords":{"type":"Point","coordinates":[5.618062237325717,6.342423172782333]}},{"name":"Xiamen","country":"China","coords":{"type":"Point","coordinates":[118.07807118959852,24.451937943362566]}},{"name":"Nanchong","country":"China","coords":{"type":"Point","coordinates":[106.12805125139965,30.782378413765457]}},{"name":"Neijiang","country":"China","coords":{"type":"Point","coordinates":[105.04806549293176,29.582322464867616]}},{"name":"Nanyang","country":"China","coords":{"type":"Point","coordinates":[112.5280740378837,33.002346268592305]}},{"name":"Jinxi","country":"China","coords":{"type":"Point","coordinates":[120.82803253401062,40.75228665762057]}},{"name":"Yantai","country":"China","coords":{"type":"Point","coordinates":[121.39807525862216,37.532353999730105]}},{"name":"Zaozhuang","country":"China","coords":{"type":"Point","coordinates":[117.5680764793101,34.881947302128424]}},{"name":"Suzhou","country":"China","coords":{"type":"Point","coordinates":[120.6180711896086,31.302424190135014]}},{"name":"Xuzhou","country":"China","coords":{"type":"Point","coordinates":[117.17807444480309,34.28195808500345]}},{"name":"Wuxi","country":"China","coords":{"type":"Point","coordinates":[120.29803904442508,31.58194201240144]}},{"name":"Jilin","country":"China","coords":{"type":"Point","coordinates":[126.54809682439804,43.85191658113547]}},{"name":"Chandigarh","country":"India","coords":{"type":"Point","coordinates":[76.77805979620422,30.72194282620012]}},{"name":"Jammu","country":"India","coords":{"type":"Point","coordinates":[74.84479278773284,32.71373339424218]}},{"name":"Sholapur","country":"India","coords":{"type":"Point","coordinates":[75.89806183070573,17.67235176169487]}},{"name":"Aurangabad","country":"India","coords":{"type":"Point","coordinates":[75.31835561325562,19.897642289047553]}},{"name":"Nasik","country":"India","coords":{"type":"Point","coordinates":[73.77803619593175,20.002364579087043]}},{"name":"Dispur","country":"India","coords":{"type":"Point","coordinates":[91.76663610735085,26.144023049925636]}},{"name":"Jullundur","country":"India","coords":{"type":"Point","coordinates":[75.56707428187644,31.336866532257204]}},{"name":"Allahabad","country":"India","coords":{"type":"Point","coordinates":[81.83806101692738,25.456941198574953]}},{"name":"Moradabad","country":"India","coords":{"type":"Point","coordinates":[78.75483836066508,28.843737056335897]}},{"name":"Ghaziabad","country":"India","coords":{"type":"Point","coordinates":[77.40644521287328,28.6623269407753]}},{"name":"Agra","country":"India","coords":{"type":"Point","coordinates":[78.01307485154763,27.1723662067198]}},{"name":"Aligarh","country":"India","coords":{"type":"Point","coordinates":[78.05984202277182,27.89415677475654]}},{"name":"Meerut","country":"India","coords":{"type":"Point","coordinates":[77.69805532029636,29.00235786525593]}},{"name":"Dhanbad","country":"India","coords":{"type":"Point","coordinates":[86.41803985809162,23.802339351237606]}},{"name":"Gwalior","country":"India","coords":{"type":"Point","coordinates":[78.17812937628787,26.2319326536562]}},{"name":"Vadodara","country":"India","coords":{"type":"Point","coordinates":[73.17807281702295,22.311965205723993]}},{"name":"Rajkot","country":"India","coords":{"type":"Point","coordinates":[70.79806305138851,22.311965205723993]}},{"name":"Durazno","country":"Uruguay","coords":{"type":"Point","coordinates":[-56.510049684257865,-33.41001625695321]}},{"name":"International Falls","country":"United States","coords":{"type":"Point","coordinates":[-93.41084639664501,48.60112774565346]}},{"name":"St. Paul","country":"United States","coords":{"type":"Point","coordinates":[-93.08497481461256,44.943986632357735]}},{"name":"Billings","country":"United States","coords":{"type":"Point","coordinates":[-108.54000044943984,45.78830202135839]}},{"name":"Great Falls","country":"United States","coords":{"type":"Point","coordinates":[-111.29998702171667,47.50029054675599]}},{"name":"Missoula","country":"United States","coords":{"type":"Point","coordinates":[-113.99305261417527,46.87224102689663]}},{"name":"Minot","country":"United States","coords":{"type":"Point","coordinates":[-101.29581730325219,48.23249391589951]}},{"name":"Fargo","country":"United States","coords":{"type":"Point","coordinates":[-96.78942570167163,46.87722780261288]}},{"name":"Hilo","country":"United States","coords":{"type":"Point","coordinates":[-155.0900273050949,19.699997781345246]}},{"name":"Olympia","country":"United States","coords":{"type":"Point","coordinates":[-122.89943404324742,47.038044859905085]}},{"name":"Spokane","country":"United States","coords":{"type":"Point","coordinates":[-117.41994938339474,47.66999595040238]}},{"name":"Vancouver","country":"United States","coords":{"type":"Point","coordinates":[-122.63999251492606,45.63030132962615]}},{"name":"Flagstaff","country":"United States","coords":{"type":"Point","coordinates":[-111.65050826195244,35.19809572248795]}},{"name":"Tucson","country":"United States","coords":{"type":"Point","coordinates":[-110.89193206652578,32.20694262275566]}},{"name":"Santa Barbara","country":"United States","coords":{"type":"Point","coordinates":[-119.71998987005765,34.434989846833844]}},{"name":"Fresno","country":"United States","coords":{"type":"Point","coordinates":[-119.77298405137293,36.74771689762446]}},{"name":"Eureka","country":"United States","coords":{"type":"Point","coordinates":[-124.14749739774453,40.80222393702854]}},{"name":"Colorado Springs","country":"United States","coords":{"type":"Point","coordinates":[-104.79198632995883,38.86296246241153]}},{"name":"Reno","country":"United States","coords":{"type":"Point","coordinates":[-119.82000960475847,39.52997601221881]}},{"name":"Elko","country":"United States","coords":{"type":"Point","coordinates":[-115.7619885679585,40.83250632635162]}},{"name":"Albuquerque","country":"United States","coords":{"type":"Point","coordinates":[-106.64133081238799,35.10497479149802]}},{"name":"Salem","country":"United States","coords":{"type":"Point","coordinates":[-123.0238967304224,44.928070291211725]}},{"name":"Casper","country":"United States","coords":{"type":"Point","coordinates":[-106.3124878354987,42.8666198924405]}},{"name":"Topeka","country":"United States","coords":{"type":"Point","coordinates":[-95.6699849871489,39.05000530909189]}},{"name":"Kansas City","country":"United States","coords":{"type":"Point","coordinates":[-94.6060400775458,39.10903436839749]}},{"name":"Tulsa","country":"United States","coords":{"type":"Point","coordinates":[-95.93002079444159,36.120003274575026]}},{"name":"Sioux Falls","country":"United States","coords":{"type":"Point","coordinates":[-96.72999780453597,43.5499890330683]}},{"name":"Shreveport","country":"United States","coords":{"type":"Point","coordinates":[-93.77002343928973,32.500017516097046]}},{"name":"Baton Rouge","country":"United States","coords":{"type":"Point","coordinates":[-91.14015812352397,30.457945779435136]}},{"name":"Ft. Worth","country":"United States","coords":{"type":"Point","coordinates":[-97.34003808774145,32.73997702944422]}},{"name":"Corpus Christi","country":"United States","coords":{"type":"Point","coordinates":[-97.4018947771948,27.742814350387846]}},{"name":"Austin","country":"United States","coords":{"type":"Point","coordinates":[-97.74472422142117,30.26889554429738]}},{"name":"Amarillo","country":"United States","coords":{"type":"Point","coordinates":[-101.82999658385324,35.229980081212034]}},{"name":"El Paso","country":"United States","coords":{"type":"Point","coordinates":[-106.51194101833124,31.78192980537125]}},{"name":"Laredo","country":"United States","coords":{"type":"Point","coordinates":[-99.50721846698184,27.506136290490986]}},{"name":"Merida","country":"Venezuela","coords":{"type":"Point","coordinates":[-71.13001001146483,8.399989846729682]}},{"name":"Burlington","country":"United States","coords":{"type":"Point","coordinates":[-73.21246687996268,44.47579815579337]}},{"name":"Montgomery","country":"United States","coords":{"type":"Point","coordinates":[-86.27918868177272,32.361602192203065]}},{"name":"Tallahassee","country":"United States","coords":{"type":"Point","coordinates":[-84.28003422212942,30.449987608862102]}},{"name":"Orlando","country":"United States","coords":{"type":"Point","coordinates":[-81.38197621517077,28.511922684589933]}},{"name":"Jacksonville","country":"United States","coords":{"type":"Point","coordinates":[-81.67193267676049,30.331966629909687]}},{"name":"Savannah","country":"United States","coords":{"type":"Point","coordinates":[-81.10999515961657,32.02110617983209]}},{"name":"Columbia","country":"United States","coords":{"type":"Point","coordinates":[-80.89998213878243,34.03997519839476]}},{"name":"Indianapolis","country":"United States","coords":{"type":"Point","coordinates":[-86.1719939153852,39.751934281314504]}},{"name":"Wilmington","country":"United States","coords":{"type":"Point","coordinates":[-77.94502038746856,34.22551942853886]}},{"name":"Knoxville","country":"United States","coords":{"type":"Point","coordinates":[-83.92003035656808,35.97001242984783]}},{"name":"Richmond","country":"United States","coords":{"type":"Point","coordinates":[-77.45193186294159,37.55196520578477]}},{"name":"Charleston","country":"United States","coords":{"type":"Point","coordinates":[-81.63272811046517,38.3497379751048]}},{"name":"Baltimore","country":"United States","coords":{"type":"Point","coordinates":[-76.62193084568548,39.30193590891673]}},{"name":"Syracuse","country":"United States","coords":{"type":"Point","coordinates":[-76.15001367359423,43.04999371242826]}},{"name":"Puerto Ayacucho","country":"Venezuela","coords":{"type":"Point","coordinates":[-67.62360905116435,5.66390362438807]}},{"name":"Port-of-Spain","country":"Trinidad and Tobago","coords":{"type":"Point","coordinates":[-61.51703088544974,10.651997089577264]}},{"name":"Augusta","country":"United States","coords":{"type":"Point","coordinates":[-69.77998905605574,44.31056276353996]}},{"name":"Sault Ste. Marie","country":"United States","coords":{"type":"Point","coordinates":[-84.34527571789789,46.49526145332737]}},{"name":"Atakpame","country":"Togo","coords":{"type":"Point","coordinates":[1.120024371962188,7.530042947312154]}},{"name":"Sousse","country":"Tunisia","coords":{"type":"Point","coordinates":[10.62502559270348,35.82999513655301]}},{"name":"Taizz","country":"Yemen","coords":{"type":"Point","coordinates":[44.03747426547426,13.606398392537983]}},{"name":"Sitka","country":"United States","coords":{"type":"Point","coordinates":[-135.32754942897532,57.06039769173145]}},{"name":"Lvov","country":"Ukraine","coords":{"type":"Point","coordinates":[24.029995482079983,49.834980081270544]}},{"name":"Odessa","country":"Ukraine","coords":{"type":"Point","coordinates":[30.708055320108315,46.49196215406283]}},{"name":"Zhytomyr","country":"Ukraine","coords":{"type":"Point","coordinates":[28.662167519858826,50.24557517404554]}},{"name":"Dnipropetrovsk","country":"Ukraine","coords":{"type":"Point","coordinates":[34.99807769968277,48.481918208758316]}},{"name":"Donetsk","country":"Ukraine","coords":{"type":"Point","coordinates":[37.82803416128263,48.00194750563139]}},{"name":"Kharkiv","country":"Ukraine","coords":{"type":"Point","coordinates":[36.24807892039098,50.00192878819132]}},{"name":"Turkmenbasy","country":"Turkmenistan","coords":{"type":"Point","coordinates":[52.969676064878,40.023046690931835]}},{"name":"Bukhara","country":"Uzbekistan","coords":{"type":"Point","coordinates":[64.43001013067908,39.78001242986312]}},{"name":"Nukus","country":"Uzbekistan","coords":{"type":"Point","coordinates":[59.6150068754514,42.4700032746004]}},{"name":"Turkmenabat","country":"Turkmenistan","coords":{"type":"Point","coordinates":[63.580036172342375,39.11000164698271]}},{"name":"Mary","country":"Turkmenistan","coords":{"type":"Point","coordinates":[61.83332108444483,37.60001629541432]}},{"name":"Andijon","country":"Uzbekistan","coords":{"type":"Point","coordinates":[72.33996659229928,40.79000246079164]}},{"name":"Haiphong","country":"Vietnam","coords":{"type":"Point","coordinates":[106.6781468731466,20.83195218488453]}},{"name":"Da Nang","country":"Vietnam","coords":{"type":"Point","coordinates":[108.24997106835434,16.0600390817865]}},{"name":"Kabwe","country":"Zambia","coords":{"type":"Point","coordinates":[28.44998408886846,-14.440011374064795]}},{"name":"Mufulira","country":"Zambia","coords":{"type":"Point","coordinates":[28.25996984733132,-12.549997539421838]}},{"name":"Kitwe","country":"Zambia","coords":{"type":"Point","coordinates":[28.220023965169617,-12.810033346714533]}},{"name":"Livingstone","country":"Zambia","coords":{"type":"Point","coordinates":[25.860012978832117,-17.860009339573196]}},{"name":"Chitungwiza","country":"Zimbabwe","coords":{"type":"Point","coordinates":[31.10000321322798,-18.000000794651953]}},{"name":"Douala","country":"Cameroon","coords":{"type":"Point","coordinates":[9.708045147498297,4.062355627200191]}},{"name":"Birmingham","country":"United Kingdom","coords":{"type":"Point","coordinates":[-1.921942645517049,52.47691983637844]}},{"name":"Belfast","country":"United Kingdom","coords":{"type":"Point","coordinates":[-5.960034425266599,54.60001222647179]}},{"name":"Izmir","country":"Turkey","coords":{"type":"Point","coordinates":[27.149848151849312,38.43809554094969]}},{"name":"Bursa","country":"Turkey","coords":{"type":"Point","coordinates":[29.068052064893493,40.20193265371228]}},{"name":"Samsun","country":"Turkey","coords":{"type":"Point","coordinates":[36.34366247431666,41.279998391783124]}},{"name":"Konya","country":"Turkey","coords":{"type":"Point","coordinates":[32.47306386503732,37.876958288468416]}},{"name":"Adana","country":"Turkey","coords":{"type":"Point","coordinates":[35.318058168434106,36.99693448475409]}},{"name":"Gulu","country":"Uganda","coords":{"type":"Point","coordinates":[32.280034544613045,2.77999696747537]}},{"name":"Kigali","country":"Rwanda","coords":{"type":"Point","coordinates":[30.058585919064114,-1.95164421006325]}},{"name":"Cottica","country":"Suriname","coords":{"type":"Point","coordinates":[-54.233289430342495,3.850009174510944]}},{"name":"Cordoba","country":"Kingdom of Spain","coords":{"type":"Point","coordinates":[-4.770003704233147,37.87999920557161]}},{"name":"Maradi","country":"Niger","coords":{"type":"Point","coordinates":[7.096403766517312,13.491642882231758]}},{"name":"Tahoua","country":"Niger","coords":{"type":"Point","coordinates":[5.259926715728852,14.899980691482199]}},{"name":"Constanta","country":"Romania","coords":{"type":"Point","coordinates":[28.609974323244046,44.20266237291463]}},{"name":"Luleå","country":"Sweden","coords":{"type":"Point","coordinates":[22.158378329353866,65.59663477228145]}},{"name":"Sundsvall","country":"Sweden","coords":{"type":"Point","coordinates":[17.316658486610322,62.40005291660725]}},{"name":"Iasi","country":"Romania","coords":{"type":"Point","coordinates":[27.574947060870272,47.1683469839291]}},{"name":"Surat Thani","country":"Thailand","coords":{"type":"Point","coordinates":[99.34012731831876,9.150099099662441]}},{"name":"Chiang Mai","country":"Thailand","coords":{"type":"Point","coordinates":[98.98004593810896,18.79997519833387]}},{"name":"Nakhon Ratchasima","country":"Thailand","coords":{"type":"Point","coordinates":[102.1000105377309,15.00002626439931]}},{"name":"Mbabane","country":"Swaziland","coords":{"type":"Point","coordinates":[31.133334512056365,-26.316650778409212]}},{"name":"Piura","country":"Peru","coords":{"type":"Point","coordinates":[-80.62997278005753,-5.210032125981002]}},{"name":"Arequipa","country":"Peru","coords":{"type":"Point","coordinates":[-71.53195729423288,-16.418048018715012]}},{"name":"Chimbote","country":"Peru","coords":{"type":"Point","coordinates":[-78.56999515960649,-9.070003236022444]}},{"name":"Pucallpa","country":"Peru","coords":{"type":"Point","coordinates":[-74.53499597339243,-8.368909079118566]}},{"name":"Iquitos","country":"Peru","coords":{"type":"Point","coordinates":[-73.25000980802281,-3.750017884438705]}},{"name":"Huancayo","country":"Peru","coords":{"type":"Point","coordinates":[-75.20001998055653,-12.080000387727239]}},{"name":"Ciudad del Este","country":"Paraguay","coords":{"type":"Point","coordinates":[-54.61605676432845,-25.516699606531006]}},{"name":"Ponta Delgada","country":"Portugal","coords":{"type":"Point","coordinates":[-25.6665834976111,37.7483018178757]}},{"name":"Vigo","country":"Kingdom of Spain","coords":{"type":"Point","coordinates":[-8.729994548975526,42.22001853338844]}},{"name":"Bilbao","country":"Kingdom of Spain","coords":{"type":"Point","coordinates":[-2.929986817832628,43.24998150539773]}},{"name":"Kaolack","country":"Senegal","coords":{"type":"Point","coordinates":[-16.10000980779415,14.149974791414195]}},{"name":"Kaedi","country":"Senegal","coords":{"type":"Point","coordinates":[-13.499987631676959,16.150007750406473]}},{"name":"Geneina","country":"Sudan","coords":{"type":"Point","coordinates":[22.440015013323602,13.450017516020637]}},{"name":"Medina","country":"Saudi Arabia","coords":{"type":"Point","coordinates":[39.578056540847,24.501934891605174]}},{"name":"Tabuk","country":"Saudi Arabia","coords":{"type":"Point","coordinates":[36.55496740595822,28.383834654752377]}},{"name":"Juba","country":"South Sudan","coords":{"type":"Point","coordinates":[31.580025592787308,4.829975198277964]}},{"name":"Malakal","country":"South Sudan","coords":{"type":"Point","coordinates":[31.655989948256376,9.53689719536709]}},{"name":"Omdurman","country":"Sudan","coords":{"type":"Point","coordinates":[32.48002233758251,15.616681130938218]}},{"name":"El Obeid","country":"Sudan","coords":{"type":"Point","coordinates":[30.216697956063058,13.183289610746215]}},{"name":"The Hague","country":"Kingdom of the Netherlands","coords":{"type":"Point","coordinates":[4.269961302313448,52.08003684397488]}},{"name":"Kristiansand","country":"Kingdom of Norway","coords":{"type":"Point","coordinates":[8.000017861573156,58.16664206860844]}},{"name":"Ljubljana","country":"Slovenia","coords":{"type":"Point","coordinates":[14.51496903347413,46.0552883087945]}},{"name":"Bratislava","country":"Slovakia","coords":{"type":"Point","coordinates":[17.11698075223461,48.15001832996171]}},{"name":"Hammerfest","country":"Kingdom of Norway","coords":{"type":"Point","coordinates":[23.688000853172298,70.66127992673142]}},{"name":"Doha","country":"Qatar","coords":{"type":"Point","coordinates":[51.532967894299304,25.286556008906587]}},{"name":"Quetta","country":"Pakistan","coords":{"type":"Point","coordinates":[67.02304799603479,30.221947505560195]}},{"name":"Larkana","country":"Pakistan","coords":{"type":"Point","coordinates":[68.20678218473057,27.561765969853354]}},{"name":"Springbok","country":"South Africa","coords":{"type":"Point","coordinates":[17.88329056669079,-29.666730531026758]}},{"name":"Upington","country":"South Africa","coords":{"type":"Point","coordinates":[21.230011351209384,-28.460034160579085]}},{"name":"Worcester","country":"South Africa","coords":{"type":"Point","coordinates":[19.439939736618953,-33.640028057084294]}},{"name":"George","country":"South Africa","coords":{"type":"Point","coordinates":[22.450040241188162,-33.950034974403195]}},{"name":"Tete","country":"Mozambique","coords":{"type":"Point","coordinates":[33.58000687534741,-16.170034974332168]}},{"name":"Pemba","country":"Mozambique","coords":{"type":"Point","coordinates":[40.53234737016686,-12.983046042027695]}},{"name":"Nampula","country":"Mozambique","coords":{"type":"Point","coordinates":[39.29304317094318,-15.136041240604015]}},{"name":"Welkom","country":"South Africa","coords":{"type":"Point","coordinates":[26.72998571646582,-27.969986553155366]}},{"name":"Xai-Xai","country":"Mozambique","coords":{"type":"Point","coordinates":[33.64000321323823,-25.039984518638448]}},{"name":"Goroka","country":"Papua New Guinea","coords":{"type":"Point","coordinates":[145.38548213621118,-6.083312155281362]}},{"name":"Mt. Hagen","country":"Papua New Guinea","coords":{"type":"Point","coordinates":[144.21681961993056,-5.863222230150257]}},{"name":"Rabaul","country":"Papua New Guinea","coords":{"type":"Point","coordinates":[152.14343072524298,-4.205490385246037]}},{"name":"Lae","country":"Papua New Guinea","coords":{"type":"Point","coordinates":[146.9900353588739,-6.732988262054789]}},{"name":"David","country":"Panama","coords":{"type":"Point","coordinates":[-82.433325237747,8.433321145558011]}},{"name":"Oujda","country":"Morocco","coords":{"type":"Point","coordinates":[-1.909971559039434,34.69001304019423]}},{"name":"Safi","country":"Morocco","coords":{"type":"Point","coordinates":[-9.239989259264007,32.319976825992114]}},{"name":"Podgorica","country":"Montenegro","coords":{"type":"Point","coordinates":[19.266306924118226,42.465972512881706]}},{"name":"Quelimane","country":"Mozambique","coords":{"type":"Point","coordinates":[36.88998571650643,-17.88000811887025]}},{"name":"East London","country":"South Africa","coords":{"type":"Point","coordinates":[27.870019489256777,-32.97004311242017]}},{"name":"Middelburg","country":"South Africa","coords":{"type":"Point","coordinates":[25.009987344063006,-31.5000036430132]}},{"name":"Naltchik","country":"Russia","coords":{"type":"Point","coordinates":[43.61794714231462,43.498105895047274]}},{"name":"Stavropol","country":"Russia","coords":{"type":"Point","coordinates":[41.980010944391324,45.050000833204535]}},{"name":"Ugolnye Kopi","country":"Russia","coords":{"type":"Point","coordinates":[177.6999954826946,64.73329551101756]}},{"name":"Kaliningrad","country":"Russia","coords":{"type":"Point","coordinates":[20.49734289417512,54.70000612295655]}},{"name":"Pskov","country":"Russia","coords":{"type":"Point","coordinates":[28.329939736654353,57.82999595044299]}},{"name":"Bryansk","country":"Russia","coords":{"type":"Point","coordinates":[34.429980833684,53.25999066071114]}},{"name":"Smolensk","country":"Russia","coords":{"type":"Point","coordinates":[32.047335570002645,54.78268841462369]}},{"name":"Petrozavodsk","country":"Russia","coords":{"type":"Point","coordinates":[34.280015827172974,61.849983133076364]}},{"name":"Tver","country":"Russia","coords":{"type":"Point","coordinates":[35.889995075226466,56.859977639892406]}},{"name":"Vologda","country":"Russia","coords":{"type":"Point","coordinates":[39.919981647508166,59.20998923658135]}},{"name":"Yaroslavl","country":"Russia","coords":{"type":"Point","coordinates":[39.8700105374819,57.619982929608966]}},{"name":"Rostov","country":"Russia","coords":{"type":"Point","coordinates":[39.710709942540234,47.236593705172595]}},{"name":"Sochi","country":"Russia","coords":{"type":"Point","coordinates":[39.72996740597091,43.59001242987824]}},{"name":"Krasnodar","country":"Russia","coords":{"type":"Point","coordinates":[39.0000377998482,45.01997682604281]}},{"name":"Penza","country":"Russia","coords":{"type":"Point","coordinates":[44.9999816475285,53.18002138173955]}},{"name":"Ryazan","country":"Russia","coords":{"type":"Point","coordinates":[39.71999385453853,54.61995932933655]}},{"name":"Voronezh","country":"Russia","coords":{"type":"Point","coordinates":[39.268049623527986,51.73192655024269]}},{"name":"Magnitogorsk","country":"Russia","coords":{"type":"Point","coordinates":[58.980006875448964,53.42269390778233]}},{"name":"Chelyabinsk","country":"Russia","coords":{"type":"Point","coordinates":[61.43672231241885,55.15693712968334]}},{"name":"Vorkuta","country":"Russia","coords":{"type":"Point","coordinates":[64.0099840890108,67.50000001949212]}},{"name":"Kirov","country":"Russia","coords":{"type":"Point","coordinates":[49.669980833745115,58.59005291659196]}},{"name":"Nizhny Tagil","country":"Russia","coords":{"type":"Point","coordinates":[59.97498490279662,57.92001629549554]}},{"name":"Astrakhan","country":"Russia","coords":{"type":"Point","coordinates":[48.054988971759485,46.34865541491541]}},{"name":"Orenburg","country":"Russia","coords":{"type":"Point","coordinates":[55.11001053754285,51.77997763987207]}},{"name":"Saratov","country":"Russia","coords":{"type":"Point","coordinates":[46.02805043735725,51.58193570551549]}},{"name":"Ulyanovsk","country":"Russia","coords":{"type":"Point","coordinates":[48.41000606160463,54.32997702953071]}},{"name":"Omsk","country":"Russia","coords":{"type":"Point","coordinates":[73.39800771285718,54.99193428137528]}},{"name":"Tyumen","country":"Russia","coords":{"type":"Point","coordinates":[65.52999466844398,57.14001222648204]}},{"name":"Novokuznetsk","country":"Russia","coords":{"type":"Point","coordinates":[87.11498205459799,53.750012429919025]}},{"name":"Kemerovo","country":"Russia","coords":{"type":"Point","coordinates":[86.0899800200886,55.33996706045923]}},{"name":"Groznyy","country":"Russia","coords":{"type":"Point","coordinates":[45.698698688546926,43.31868532212985]}},{"name":"Kandy","country":"Sri Lanka","coords":{"type":"Point","coordinates":[80.67000077202016,7.27998069145184]}},{"name":"Sri Jawewardenepura Kotte","country":"Sri Lanka","coords":{"type":"Point","coordinates":[79.94999304089748,6.900003884809621]}},{"name":"Daejeon","country":"Korea, South","coords":{"type":"Point","coordinates":[127.42308217596405,36.33749153227734]}},{"name":"Gwangju","country":"Korea, South","coords":{"type":"Point","coordinates":[126.90848826320143,35.17291145414782]}},{"name":"Busan","country":"Korea, South","coords":{"type":"Point","coordinates":[129.00810170722048,35.09699877511093]}},{"name":"Zamboanga","country":"Philippines","coords":{"type":"Point","coordinates":[122.07808543115095,6.921922684503329]}},{"name":"Laoag","country":"Philippines","coords":{"type":"Point","coordinates":[120.59361039132034,18.19884909969869]}},{"name":"Baguio City","country":"Philippines","coords":{"type":"Point","coordinates":[120.56994258533086,16.42999066056393]}},{"name":"General Santos","country":"Philippines","coords":{"type":"Point","coordinates":[125.174726113995,6.110827249064357]}},{"name":"Ust-Ulimsk","country":"Russia","coords":{"type":"Point","coordinates":[102.63331131898292,57.98996034660257]}},{"name":"Angarsk","country":"Russia","coords":{"type":"Point","coordinates":[103.92000280661841,52.560007547101634]}},{"name":"Abakan","country":"Russia","coords":{"type":"Point","coordinates":[91.44500199276627,53.70368450836935]}},{"name":"Norilsk","country":"Russia","coords":{"type":"Point","coordinates":[88.22499182022744,69.34001690589281]}},{"name":"Khatanga","country":"Russia","coords":{"type":"Point","coordinates":[102.4650011790082,72.04114402178902]}},{"name":"Kyzyl","country":"Russia","coords":{"type":"Point","coordinates":[94.38306555072069,51.70670045888221]}},{"name":"Ulan Ude","country":"Russia","coords":{"type":"Point","coordinates":[107.62499629621652,51.82498781239826]}},{"name":"Blagoveshchensk","country":"Russia","coords":{"type":"Point","coordinates":[127.53334183666061,50.266607481988444]}},{"name":"Bukachacha","country":"Russia","coords":{"type":"Point","coordinates":[116.9166255280245,52.98334088043674]}},{"name":"Dalnegorsk","country":"Russia","coords":{"type":"Point","coordinates":[135.5172472728906,44.53721559557215]}},{"name":"Ambarchik","country":"Russia","coords":{"type":"Point","coordinates":[162.33359492924774,69.65100567542538]}},{"name":"Batagay","country":"Russia","coords":{"type":"Point","coordinates":[134.63502722080364,67.65598533036518]}},{"name":"Chokurdakh","country":"Russia","coords":{"type":"Point","coordinates":[147.89457962971085,70.61831097328081]}},{"name":"Ust Nera","country":"Russia","coords":{"type":"Point","coordinates":[143.19998246172338,64.56658734044407]}},{"name":"Lensk","country":"Russia","coords":{"type":"Point","coordinates":[114.94702998765206,60.72527142245997]}},{"name":"Aldan","country":"Russia","coords":{"type":"Point","coordinates":[125.38939001373535,58.60299786288107]}},{"name":"Mirnyy","country":"Russia","coords":{"type":"Point","coordinates":[113.96135371811704,62.54001853346972]}},{"name":"Zhigansk","country":"Russia","coords":{"type":"Point","coordinates":[123.37111527414413,66.76970867834336]}},{"name":"Okhotsk","country":"Russia","coords":{"type":"Point","coordinates":[143.21703568437977,59.383001931894626]}},{"name":"Khabarovsk","country":"Russia","coords":{"type":"Point","coordinates":[135.12001053786298,48.454986795132186]}},{"name":"Okha","country":"Russia","coords":{"type":"Point","coordinates":[142.9478531485713,53.57389914866826]}},{"name":"Yuzhno Sakhalinsk","country":"Russia","coords":{"type":"Point","coordinates":[142.74001053789334,46.96497438464439]}},{"name":"Mexicali","country":"Mexico","coords":{"type":"Point","coordinates":[-115.48196197377081,32.651928381221126]}},{"name":"La Paz","country":"Mexico","coords":{"type":"Point","coordinates":[-110.3199951597336,24.139959329214662]}},{"name":"Torreon","country":"Mexico","coords":{"type":"Point","coordinates":[-103.42194874943863,25.571998775072927]}},{"name":"Culiacan","country":"Mexico","coords":{"type":"Point","coordinates":[-107.38191375596483,24.831940588220903]}},{"name":"Nogales","country":"Mexico","coords":{"type":"Point","coordinates":[-110.94499577008764,31.305000019347347]}},{"name":"Hermosillo","country":"Mexico","coords":{"type":"Point","coordinates":[-110.95406498395482,29.098881448374925]}},{"name":"Guaymas","country":"Mexico","coords":{"type":"Point","coordinates":[-110.8899862079129,27.930012226365193]}},{"name":"San Luis Potosi","country":"Mexico","coords":{"type":"Point","coordinates":[-101.00194142521025,22.17192207421283]}},{"name":"Matamoros","country":"Mexico","coords":{"type":"Point","coordinates":[-97.50000248390103,25.87998231913042]}},{"name":"Nuevo Laredo","country":"Mexico","coords":{"type":"Point","coordinates":[-99.55000655291951,27.499986795048358]}},{"name":"Colima","country":"Mexico","coords":{"type":"Point","coordinates":[-103.7200104184962,19.22997479143453]}},{"name":"Campeche","country":"Mexico","coords":{"type":"Point","coordinates":[-90.4999904802923,19.829989846775504]}},{"name":"Oaxaca","country":"Mexico","coords":{"type":"Point","coordinates":[-96.66994979021285,17.082689838626436]}},{"name":"Leon","country":"Mexico","coords":{"type":"Point","coordinates":[-101.7019762152521,21.151932653635924]}},{"name":"Maiduguri","country":"Nigeria","coords":{"type":"Point","coordinates":[13.158067120168312,11.851906001580574]}},{"name":"Port Harcourt","country":"Nigeria","coords":{"type":"Point","coordinates":[7.00805491311246,4.811948115810253]}},{"name":"Makurdi","country":"Nigeria","coords":{"type":"Point","coordinates":[8.530011351158521,7.729979063849441]}},{"name":"Ibadan","country":"Nigeria","coords":{"type":"Point","coordinates":[3.928036195652226,7.381972122981836]}},{"name":"Ogbomosho","country":"Nigeria","coords":{"type":"Point","coordinates":[4.238043112971241,8.131952184833665]}},{"name":"Warri","country":"Nigeria","coords":{"type":"Point","coordinates":[5.759999551017302,5.519958922238914]}},{"name":"Kaduna","country":"Nigeria","coords":{"type":"Point","coordinates":[7.43805450621312,10.521961340116718]}},{"name":"Gdansk","country":"Poland","coords":{"type":"Point","coordinates":[18.64004024117304,54.359975198476036]}},{"name":"Kraków","country":"Poland","coords":{"type":"Point","coordinates":[19.958065492591288,50.061925126082315]}},{"name":"Dalandzadgad","country":"Mongolia","coords":{"type":"Point","coordinates":[104.44028112693297,43.58355287584186]}},{"name":"Wonsan","country":"Korea, North","coords":{"type":"Point","coordinates":[127.4308157949938,39.1604895213319]}},{"name":"Sinuiju","country":"Korea, North","coords":{"type":"Point","coordinates":[124.42128373117953,40.085859394382624]}},{"name":"Dund-Us","country":"Mongolia","coords":{"type":"Point","coordinates":[91.63325923560558,48.016641458216384]}},{"name":"Choybalsan","country":"Mongolia","coords":{"type":"Point","coordinates":[114.50602331447305,48.06658673002647]}},{"name":"Lüderitz","country":"Namibia","coords":{"type":"Point","coordinates":[15.15942582058608,-26.648000062264714]}},{"name":"Walvis Bay","country":"Namibia","coords":{"type":"Point","coordinates":[14.505305540635675,-22.95752765014055]}},{"name":"Mwanza","country":"United Republic of Tanzania","coords":{"type":"Point","coordinates":[32.93002070998011,-2.520015443027546]}},{"name":"Morogoro","country":"United Republic of Tanzania","coords":{"type":"Point","coordinates":[37.66001623408761,-6.820011374034323]}},{"name":"Dodoma","country":"United Republic of Tanzania","coords":{"type":"Point","coordinates":[35.75000362014765,-6.183306051766181]}},{"name":"Arusha","country":"United Republic of Tanzania","coords":{"type":"Point","coordinates":[36.669999144239796,-3.360015849931926]}},{"name":"Napier","country":"New Zealand","coords":{"type":"Point","coordinates":[176.91503047618107,-39.49000689825357]}},{"name":"Manukau","country":"New Zealand","coords":{"type":"Point","coordinates":[174.8849735100273,-36.99997800826958]}},{"name":"Hamilton","country":"New Zealand","coords":{"type":"Point","coordinates":[175.3000386141955,-37.770008525850756]}},{"name":"Blenheim","country":"New Zealand","coords":{"type":"Point","coordinates":[173.9592419019508,-41.52099404018878]}},{"name":"Dunedin","country":"New Zealand","coords":{"type":"Point","coordinates":[170.47997106860328,-45.87995278044053]}},{"name":"Bern","country":"Switzerland","coords":{"type":"Point","coordinates":[7.466975462482424,46.91668275866772]}},{"name":"Malmö","country":"Sweden","coords":{"type":"Point","coordinates":[13.03330236680165,55.58333721833782]}},{"name":"Laayoune","country":"Morocco","coords":{"type":"Point","coordinates":[-13.200005942222674,27.14998231913546]}},{"name":"Ternate","country":"Indonesia","coords":{"type":"Point","coordinates":[127.36301631582671,0.792960631204437]}},{"name":"Ambon","country":"Indonesia","coords":{"type":"Point","coordinates":[128.2000194896582,-3.716686585610319]}},{"name":"Raba","country":"Indonesia","coords":{"type":"Point","coordinates":[118.76664180407352,-8.449989401384585]}},{"name":"Jayapura","country":"Indonesia","coords":{"type":"Point","coordinates":[140.69998002030718,-2.532986227532774]}},{"name":"Florence","country":"Italy","coords":{"type":"Point","coordinates":[11.250000364841299,43.780000833199324]}},{"name":"Catania","country":"Italy","coords":{"type":"Point","coordinates":[15.079999144153533,37.49997072249721]}},{"name":"Pristina","country":"Kosovo","coords":{"type":"Point","coordinates":[21.165984251599866,42.666709614119384]}},{"name":"Meru","country":"Kenya","coords":{"type":"Point","coordinates":[37.64001745479061,0.059982115576588]}},{"name":"Eldoret","country":"Kenya","coords":{"type":"Point","coordinates":[35.26998124058855,0.520005715838806]}},{"name":"Banda Aceh","country":"Indonesia","coords":{"type":"Point","coordinates":[95.32001094460469,5.549982929400642]}},{"name":"George Town","country":"Malaysia","coords":{"type":"Point","coordinates":[100.32936786727998,5.413613155584244]}},{"name":"Zhangye","country":"China","coords":{"type":"Point","coordinates":[100.45003373108364,38.92998679509401]}},{"name":"Wuwei","country":"China","coords":{"type":"Point","coordinates":[102.64101110739443,37.92800661117087]}},{"name":"Dunhuang","country":"China","coords":{"type":"Point","coordinates":[94.66201493223235,40.14267763168738]}},{"name":"Tianshui","country":"China","coords":{"type":"Point","coordinates":[105.91803823056546,34.60196439197097]}},{"name":"Dulan","country":"China","coords":{"type":"Point","coordinates":[98.26660111388742,36.16658957828611]}},{"name":"Golmud","country":"China","coords":{"type":"Point","coordinates":[94.88334509173848,36.41662599593042]}},{"name":"Yulin","country":"China","coords":{"type":"Point","coordinates":[110.14806427224903,22.631919836258987]}},{"name":"Bose","country":"China","coords":{"type":"Point","coordinates":[106.61332678123836,23.899715595489738]}},{"name":"Wuzhou","country":"China","coords":{"type":"Point","coordinates":[111.32001623438236,23.480025450631217]}},{"name":"Lupanshui","country":"China","coords":{"type":"Point","coordinates":[104.831386212332,26.59638069239469]}},{"name":"Quanzhou","country":"China","coords":{"type":"Point","coordinates":[118.57804067202244,24.901962153976513]}},{"name":"Hefei","country":"China","coords":{"type":"Point","coordinates":[117.27806834128808,31.851977209342863]}},{"name":"Suzhou","country":"China","coords":{"type":"Point","coordinates":[116.97694304138713,33.63805695861305]}},{"name":"Zhanjiang","country":"China","coords":{"type":"Point","coordinates":[110.37807607238017,21.20192960187819]}},{"name":"Shaoguan","country":"China","coords":{"type":"Point","coordinates":[113.57998164780281,24.799970722446346]}},{"name":"Balikpapan","country":"Indonesia","coords":{"type":"Point","coordinates":[116.83001582750319,-1.250015443022335]}},{"name":"Kuching","country":"Malaysia","coords":{"type":"Point","coordinates":[110.32999914453461,1.529969908551095]}},{"name":"Antsiranana","country":"Madagascar","coords":{"type":"Point","coordinates":[49.3115261042372,-12.27650151558953]}},{"name":"Fianarantsoa","country":"Madagascar","coords":{"type":"Point","coordinates":[47.08326533894302,-21.433331279691686]}},{"name":"Mahajanga","country":"Madagascar","coords":{"type":"Point","coordinates":[46.34501582722123,-15.670013815475954]}},{"name":"Toliara","country":"Madagascar","coords":{"type":"Point","coordinates":[43.68998408892941,-23.356831442459736]}},{"name":"Surakarta","country":"Indonesia","coords":{"type":"Point","coordinates":[110.8250076894584,-7.564978821953957]}},{"name":"Bandar Lampung","country":"Indonesia","coords":{"type":"Point","coordinates":[105.26805206519833,-5.428072839634524]}},{"name":"Tanjungpandan","country":"Indonesia","coords":{"type":"Point","coordinates":[107.65000768944572,-2.750027243158627]}},{"name":"Malang","country":"Indonesia","coords":{"type":"Point","coordinates":[112.60806915507146,-7.978046391076873]}},{"name":"Kupang","country":"Indonesia","coords":{"type":"Point","coordinates":[123.5829886465408,-10.178669414412298]}},{"name":"Parepare","country":"Indonesia","coords":{"type":"Point","coordinates":[119.63330725004062,-4.016668275064717]}},{"name":"Cuenca","country":"Ecuador","coords":{"type":"Point","coordinates":[-78.99999475270727,-2.899992249669651]}},{"name":"Santa Cruz","country":"Ecuador","coords":{"type":"Point","coordinates":[-90.3499996355651,-0.533315003566486]}},{"name":"Puerto Limon","country":"Costa Rica","coords":{"type":"Point","coordinates":[-83.03334029308792,10.000021381566796]}},{"name":"Santiago de Cuba","country":"Cuba","coords":{"type":"Point","coordinates":[-75.82132572600182,20.02501670224507]}},{"name":"Santiago","country":"Dominican Republic","coords":{"type":"Point","coordinates":[-70.67001224941868,19.50000998837578]}},{"name":"Manizales","country":"Colombia","coords":{"type":"Point","coordinates":[-75.52000044930787,5.059986998409101]}},{"name":"Pasto","country":"Colombia","coords":{"type":"Point","coordinates":[-77.28110742359877,1.213606790060339]}},{"name":"Barranquilla","country":"Colombia","coords":{"type":"Point","coordinates":[-74.8019127385819,10.96193448464993]}},{"name":"Roseau","country":"Dominica","coords":{"type":"Point","coordinates":[-61.387012981803366,15.301015644283325]}},{"name":"Mbandaka","country":"Congo (Kinshasa)","coords":{"type":"Point","coordinates":[18.26001175809847,0.040035012711826]}},{"name":"Moundou","country":"Chad","coords":{"type":"Point","coordinates":[16.090015013298228,8.54998069145688]}},{"name":"Suez","country":"Egypt","coords":{"type":"Point","coordinates":[32.549940550473366,30.004976012180805]}},{"name":"Bur Said","country":"Egypt","coords":{"type":"Point","coordinates":[32.290008096045256,31.259989846821156]}},{"name":"El Faiyum","country":"Egypt","coords":{"type":"Point","coordinates":[30.839967405935283,29.310031350719555]}},{"name":"Aswan","country":"Egypt","coords":{"type":"Point","coordinates":[32.89891149774047,24.087507750438363]}},{"name":"Asyut","country":"Egypt","coords":{"type":"Point","coordinates":[31.17994665398362,27.189979877729343]}},{"name":"Kisangani","country":"Congo (Kinshasa)","coords":{"type":"Point","coordinates":[25.220000364897203,0.520005715838806]}},{"name":"Assab","country":"Eritrea","coords":{"type":"Point","coordinates":[42.729991006243324,13.010018533271591]}},{"name":"Djibouti","country":"Djibouti","coords":{"type":"Point","coordinates":[43.148001667052256,11.595014464255485]}},{"name":"Dresden","country":"Germany","coords":{"type":"Point","coordinates":[13.750002806257669,51.04997051910084]}},{"name":"Xigaze","country":"China","coords":{"type":"Point","coordinates":[88.88334956762583,29.25000917461267]}},{"name":"Shache","country":"China","coords":{"type":"Point","coordinates":[77.25000280651165,38.42614158024821]}},{"name":"Yining","country":"China","coords":{"type":"Point","coordinates":[81.35001094454879,43.9000193471972]}},{"name":"Altay","country":"China","coords":{"type":"Point","coordinates":[88.11662634171137,47.866598937056835]}},{"name":"Putrajaya","country":"Malaysia","coords":{"type":"Point","coordinates":[101.7019469797865,2.914019794624551]}},{"name":"Shizuishan","country":"China","coords":{"type":"Point","coordinates":[106.7690278717339,39.233275776215066]}},{"name":"Yulin","country":"China","coords":{"type":"Point","coordinates":[109.7332913808603,38.2833079213936]}},{"name":"Ankang","country":"China","coords":{"type":"Point","coordinates":[109.02000158593569,32.679980691553396]}},{"name":"Houma","country":"China","coords":{"type":"Point","coordinates":[111.20999711003287,35.61998211571881]}},{"name":"Yueyang","country":"China","coords":{"type":"Point","coordinates":[113.098065086063,29.38199877508805]}},{"name":"Hengyang","country":"China","coords":{"type":"Point","coordinates":[112.58807037577469,26.881970495455846]}},{"name":"Mianyang","country":"China","coords":{"type":"Point","coordinates":[104.76803090634212,31.47192288805212]}},{"name":"Xichang","country":"China","coords":{"type":"Point","coordinates":[102.29999833070036,27.880015278122755]}},{"name":"Baoshan","country":"China","coords":{"type":"Point","coordinates":[99.15000972391692,25.11997702941386]}},{"name":"Gejiu","country":"China","coords":{"type":"Point","coordinates":[103.15007564190165,23.379979877714106]}},{"name":"Shijianzhuang","country":"China","coords":{"type":"Point","coordinates":[114.47803253398513,38.05196052642481]}},{"name":"Handan","country":"China","coords":{"type":"Point","coordinates":[114.47803253398513,36.58192105701795]}},{"name":"Anshan","country":"China","coords":{"type":"Point","coordinates":[122.93808461735227,41.11696724030418]}},{"name":"Dalian","country":"China","coords":{"type":"Point","coordinates":[121.62788497900601,38.92478425181571]}},{"name":"Qingdao","country":"China","coords":{"type":"Point","coordinates":[120.32806305158692,36.09192512602641]}},{"name":"Linyi","country":"China","coords":{"type":"Point","coordinates":[118.3280300925943,35.08193509509789]}},{"name":"Huaiyin","country":"China","coords":{"type":"Point","coordinates":[119.02803904442021,33.581949133177716]}},{"name":"Wenzhou","country":"China","coords":{"type":"Point","coordinates":[120.64814687320245,28.02192675359828]}},{"name":"Ningbo","country":"China","coords":{"type":"Point","coordinates":[121.54809194156553,29.881916581079565]}},{"name":"Fukuoka","country":"Japan","coords":{"type":"Point","coordinates":[130.4080679344396,33.59696113675858]}},{"name":"Miyazaki","country":"Japan","coords":{"type":"Point","coordinates":[131.4183760163636,31.918244241355012]}},{"name":"Naha","country":"Japan","coords":{"type":"Point","coordinates":[127.67297155671349,26.20717165018641]}},{"name":"Kochi","country":"Japan","coords":{"type":"Point","coordinates":[133.53752315178895,33.56243328758569]}},{"name":"Gorontalo","country":"Indonesia","coords":{"type":"Point","coordinates":[123.07004837961153,0.549978046568128]}},{"name":"Tongliao","country":"China","coords":{"type":"Point","coordinates":[122.26804799625586,43.621904781004275]}},{"name":"Hohhot","country":"China","coords":{"type":"Point","coordinates":[111.65804962381759,40.82192065013385]}},{"name":"Chifeng","country":"China","coords":{"type":"Point","coordinates":[118.94804392723222,42.27196134024399]}},{"name":"Ulanhot","country":"China","coords":{"type":"Point","coordinates":[122.08003128976384,46.08001548164617]}},{"name":"Hailar","country":"China","coords":{"type":"Point","coordinates":[119.70002152412951,49.19998008126794]}},{"name":"Jiamusi","country":"China","coords":{"type":"Point","coordinates":[130.3480715965486,46.83196724032729]}},{"name":"Beian","country":"China","coords":{"type":"Point","coordinates":[126.4820364981149,48.2390051463683]}},{"name":"Daqing","country":"China","coords":{"type":"Point","coordinates":[124.9980622378032,46.5819049844668]}},{"name":"Jixi","country":"China","coords":{"type":"Point","coordinates":[130.96808543118652,45.301905594813206]}},{"name":"Nagoya","country":"Japan","coords":{"type":"Point","coordinates":[136.91304555490842,35.15694343656941]}},{"name":"Nagano","country":"Japan","coords":{"type":"Point","coordinates":[138.17000524816171,36.64999676416045]}},{"name":"Kushiro","country":"Japan","coords":{"type":"Point","coordinates":[144.37469112058216,42.97495953274034]}},{"name":"Hakodate","country":"Japan","coords":{"type":"Point","coordinates":[140.73997757890106,41.79497987778768]}},{"name":"Kyoto","country":"Japan","coords":{"type":"Point","coordinates":[135.7480520653204,35.03193814685562]}},{"name":"Sendai","country":"Japan","coords":{"type":"Point","coordinates":[141.01977162914363,38.28905199778001]}},{"name":"Sakata","country":"Japan","coords":{"type":"Point","coordinates":[139.8500577384026,38.9200390818778]}},{"name":"Bandundu","country":"Congo (Kinshasa)","coords":{"type":"Point","coordinates":[17.37996211616803,-3.309993063473428]}},{"name":"Kananga","country":"Congo (Kinshasa)","coords":{"type":"Point","coordinates":[22.39807159611678,-5.888096439896799]}},{"name":"Kasongo","country":"Congo (Kinshasa)","coords":{"type":"Point","coordinates":[26.66001582714256,-4.450026836264442]}},{"name":"Mbuji-Mayi","country":"Congo (Kinshasa)","coords":{"type":"Point","coordinates":[23.59805003036638,-6.148080570757202]}},{"name":"Kalemie","country":"Congo (Kinshasa)","coords":{"type":"Point","coordinates":[29.20001582715281,-5.933295472338045]}},{"name":"Butembo","country":"Congo (Kinshasa)","coords":{"type":"Point","coordinates":[29.28001094434063,0.130003681332028]}},{"name":"Goma","country":"Congo (Kinshasa)","coords":{"type":"Point","coordinates":[29.221786802172403,-1.678799100923527]}},{"name":"Mzuzu","country":"Malawi","coords":{"type":"Point","coordinates":[34.01998001988045,-11.459986553089323]}},{"name":"Blantyre","country":"Malawi","coords":{"type":"Point","coordinates":[34.98994665399886,-15.790006491257714]}},{"name":"Quetzaltenango","country":"Guatemala","coords":{"type":"Point","coordinates":[-91.52000573908543,14.829959125726816]}},{"name":"Banjul","country":"Gambia, The","coords":{"type":"Point","coordinates":[-16.591701489212596,13.45387646031594]}},{"name":"Faridabad","country":"India","coords":{"type":"Point","coordinates":[77.31472084138721,28.435279158612957]}},{"name":"Srinagar","country":"India","coords":{"type":"Point","coordinates":[74.81306345830552,34.10191739489869]}},{"name":"Vijayawada","country":"India","coords":{"type":"Point","coordinates":[80.62805735481317,16.521905187797017]}},{"name":"Thiruvananthapuram","country":"India","coords":{"type":"Point","coordinates":[76.94807525844436,8.501929601827328]}},{"name":"Kochi","country":"India","coords":{"type":"Point","coordinates":[76.22196970831124,10.016953405544541]}},{"name":"Cuttack","country":"India","coords":{"type":"Point","coordinates":[85.8899405506869,20.47000246071019]}},{"name":"Hubli","country":"India","coords":{"type":"Point","coordinates":[75.1230703756247,15.361924312141298]}},{"name":"Mangalore","country":"India","coords":{"type":"Point","coordinates":[74.8499942615802,12.90002524713833]}},{"name":"Mysore","country":"India","coords":{"type":"Point","coordinates":[76.65806712042252,12.311929601842564]}},{"name":"Gulbarga","country":"India","coords":{"type":"Point","coordinates":[76.82000321341098,17.3499603464399]}},{"name":"Kolhapur","country":"India","coords":{"type":"Point","coordinates":[74.22000687550991,16.700000019289007]}},{"name":"Nanded","country":"India","coords":{"type":"Point","coordinates":[77.30002559297014,19.16997845354365]}},{"name":"Akola","country":"India","coords":{"type":"Point","coordinates":[77.01001745494813,20.709987812273766]}},{"name":"Guwahati","country":"India","coords":{"type":"Point","coordinates":[91.76804921683703,26.16196276433317]}},{"name":"Kayes","country":"Congo (Brazzaville)","coords":{"type":"Point","coordinates":[13.280005654562899,-4.180017477539366]}},{"name":"Franceville","country":"Gabon","coords":{"type":"Point","coordinates":[13.583294635684013,-1.633299541331269]}},{"name":"Bordeaux","country":"French Republic","coords":{"type":"Point","coordinates":[-0.596958921553323,44.851958898847954]}},{"name":"Marseille","country":"French Republic","coords":{"type":"Point","coordinates":[5.37306427182989,43.29192492260455]}},{"name":"Le Havre","country":"French Republic","coords":{"type":"Point","coordinates":[0.10497005066901,49.50497438465459]}},{"name":"Gao","country":"Mali","coords":{"type":"Point","coordinates":[-0.050007569774209,16.266589781657103]}},{"name":"Coihaique","country":"Chile","coords":{"type":"Point","coordinates":[-72.07000431485403,-45.569997539553924]}},{"name":"Arica","country":"Chile","coords":{"type":"Point","coordinates":[-70.28998376634428,-18.50002195350811]}},{"name":"Copiapo","country":"Chile","coords":{"type":"Point","coordinates":[-70.33998071458666,-27.35999794638201]}},{"name":"La Serena","country":"Chile","coords":{"type":"Point","coordinates":[-71.24997684903042,-29.89999794639226]}},{"name":"Los Angeles","country":"Chile","coords":{"type":"Point","coordinates":[-72.35998661465987,-37.460001608531854]}},{"name":"Narsarsuaq","country":"Denmark","coords":{"type":"Point","coordinates":[-45.41661828772908,61.1665881542325]}},{"name":"Sisimiut","country":"Denmark","coords":{"type":"Point","coordinates":[-53.66660567382985,66.95000775060981]}},{"name":"Upernavik","country":"Denmark","coords":{"type":"Point","coordinates":[-56.141675322039305,72.70936669393757]}},{"name":"Qaanaaq","country":"Denmark","coords":{"type":"Point","coordinates":[-69.33223860846283,77.48347332682386]}},{"name":"Nouadhibou","country":"Mauritania","coords":{"type":"Point","coordinates":[-17.05602380519383,20.90000205381085]}},{"name":"Kayes","country":"Mali","coords":{"type":"Point","coordinates":[-11.440010011226036,14.449982319084597]}},{"name":"Ayoun el Atrous","country":"Mauritania","coords":{"type":"Point","coordinates":[-9.61665877423951,16.666591205812267]}},{"name":"Segou","country":"Mali","coords":{"type":"Point","coordinates":[-6.260016114720884,13.439992288156077]}},{"name":"Skopje","country":"Macedonia","coords":{"type":"Point","coordinates":[21.4334614651425,42.00000612290586]}},{"name":"Al Jawf","country":"Libya","coords":{"type":"Point","coordinates":[23.289988971660364,24.19998150532149]}},{"name":"Tmassah","country":"Libya","coords":{"type":"Point","coordinates":[15.80000687527621,26.36664512023907]}},{"name":"Misratah","country":"Libya","coords":{"type":"Point","coordinates":[15.099997923450474,32.379973163882994]}},{"name":"Zuwarah","country":"Libya","coords":{"type":"Point","coordinates":[12.079148720964497,32.934409605942335]}},{"name":"Kirkuk","country":"Iraq","coords":{"type":"Point","coordinates":[44.39226680377601,35.472239195796305]}},{"name":"Mosul","country":"Iraq","coords":{"type":"Point","coordinates":[43.14305857536641,36.346948319386684]}},{"name":"An Najaf","country":"Iraq","coords":{"type":"Point","coordinates":[44.335371051822676,32.000332254050704]}},{"name":"Bahir Dar","country":"Ethiopia","coords":{"type":"Point","coordinates":[37.38328893916457,11.600052916403968]}},{"name":"Mekele","country":"Ethiopia","coords":{"type":"Point","coordinates":[39.469983275110394,13.4999886260469]}},{"name":"Dire Dawa","country":"Ethiopia","coords":{"type":"Point","coordinates":[41.86001826860962,9.589994729547072]}},{"name":"Rovaniemi","country":"Finland","coords":{"type":"Point","coordinates":[25.715939085602372,66.50003521642839]}},{"name":"Vaasa","country":"Finland","coords":{"type":"Point","coordinates":[21.600014606419222,63.09998435378441]}},{"name":"Tampere","country":"Finland","coords":{"type":"Point","coordinates":[23.750012571922525,61.50000449537964]}},{"name":"Aqtobe","country":"Kazakhstan","coords":{"type":"Point","coordinates":[57.16998815799377,50.28001751616807]}},{"name":"Rudny","country":"Kazakhstan","coords":{"type":"Point","coordinates":[63.130037799944716,52.95269675608773]}},{"name":"Qyzylorda","country":"Kazakhstan","coords":{"type":"Point","coordinates":[65.46498571662067,44.800016091992575]}},{"name":"Atyrau","country":"Kazakhstan","coords":{"type":"Point","coordinates":[51.92002437216553,47.11269146635084]}},{"name":"Ekibastuz","country":"Kazakhstan","coords":{"type":"Point","coordinates":[75.3199397368424,51.729980691629635]}},{"name":"Pavlodar","country":"Kazakhstan","coords":{"type":"Point","coordinates":[76.95002111705725,52.29999757802511]}},{"name":"Semey","country":"Kazakhstan","coords":{"type":"Point","coordinates":[80.27503780001331,50.43499513661152]}},{"name":"Oskemen","country":"Kazakhstan","coords":{"type":"Point","coordinates":[82.61494665418934,49.99003521636223]}},{"name":"Yazd","country":"Iran","coords":{"type":"Point","coordinates":[54.37000402712323,31.92005291648536]}},{"name":"Ahvaz","country":"Iran","coords":{"type":"Point","coordinates":[48.71806712031071,31.28193448473104]}},{"name":"Basra","country":"Iraq","coords":{"type":"Point","coordinates":[47.81161082147895,30.51546964097804]}},{"name":"Bandar-e-Abbas","country":"Iran","coords":{"type":"Point","coordinates":[56.27213554363476,27.204059782209583]}},{"name":"Hamadan","country":"Iran","coords":{"type":"Point","coordinates":[48.51501257202165,34.79602724104103]}},{"name":"Tabriz","country":"Iran","coords":{"type":"Point","coordinates":[46.29930003045723,38.08823738189392]}},{"name":"Ludhiana","country":"India","coords":{"type":"Point","coordinates":[75.8703115865651,30.929707922229795]}},{"name":"Kota","country":"India","coords":{"type":"Point","coordinates":[75.8330528788826,25.18194506413363]}},{"name":"Jodhpur","country":"India","coords":{"type":"Point","coordinates":[73.01482696741311,26.293711828461085]}},{"name":"Shymkent","country":"Kazakhstan","coords":{"type":"Point","coordinates":[69.59501786181949,42.3200124298732]}},{"name":"Taraz","country":"Kazakhstan","coords":{"type":"Point","coordinates":[71.36498734424856,42.89997702948489]}},{"name":"Lucknow","country":"India","coords":{"type":"Point","coordinates":[80.91305287890293,26.85698494044243]}},{"name":"Saharanpur","country":"India","coords":{"type":"Point","coordinates":[77.55003617239828,29.97001690573535]}},{"name":"Ranchi","country":"India","coords":{"type":"Point","coordinates":[85.32808054819151,23.37195218489478]}},{"name":"Bhagalpur","country":"India","coords":{"type":"Point","coordinates":[86.9800032134516,25.22999615376318]}},{"name":"Raipur","country":"India","coords":{"type":"Point","coordinates":[81.63306061002561,21.236940384755997]}},{"name":"Jabalpur","country":"India","coords":{"type":"Point","coordinates":[79.95311147264908,23.177002844073627]}},{"name":"Indore","country":"India","coords":{"type":"Point","coordinates":[75.86307688604415,22.71700508202747]}},{"name":"Pondicherry","country":"India","coords":{"type":"Point","coordinates":[79.83000036511578,11.934993712303765]}},{"name":"Salem","country":"India","coords":{"type":"Point","coordinates":[78.17812937628787,11.671942826124052]}},{"name":"Tiruchirappalli","country":"India","coords":{"type":"Point","coordinates":[78.68802073371177,10.811943639922731]}},{"name":"Pointe-Noire","country":"Congo (Brazzaville)","coords":{"type":"Point","coordinates":[11.880039427343831,-4.770007305015667]}},{"name":"Kankan","country":"Guinea","coords":{"type":"Point","coordinates":[-9.310010825019617,10.38999757785757]}},{"name":"Nzerekore","country":"Guinea","coords":{"type":"Point","coordinates":[-8.829988445460401,7.760003071010942]}},{"name":"Bouake","country":"Ivory Coast","coords":{"type":"Point","coordinates":[-5.030013673309782,7.68998150525556]}},{"name":"St.-Denis","country":"French Republic","coords":{"type":"Point","coordinates":[55.448077757596366,-20.87889483763223]}},{"name":"Rio Branco","country":"Brazil","coords":{"type":"Point","coordinates":[-67.80000655279258,-9.966589336286518]}},{"name":"São Luís","country":"Brazil","coords":{"type":"Point","coordinates":[-44.267936704931174,-2.514038822695738]}},{"name":"Porto Velho","country":"Brazil","coords":{"type":"Point","coordinates":[-63.90001204594097,-8.750022767271219]}},{"name":"Alvorada","country":"Brazil","coords":{"type":"Point","coordinates":[-49.08200179197547,-12.470002422234018]}},{"name":"Corumba","country":"Brazil","coords":{"type":"Point","coordinates":[-57.65000594240047,-19.016011129942513]}},{"name":"Belo Horizonte","country":"Brazil","coords":{"type":"Point","coordinates":[-43.916950376804834,-19.91308016391116]}},{"name":"Montes Claros","country":"Brazil","coords":{"type":"Point","coordinates":[-43.860020794233264,-16.72002724321453]}},{"name":"Uberlandia","country":"Brazil","coords":{"type":"Point","coordinates":[-48.279983562805626,-18.899997539447156]}},{"name":"Colider","country":"Brazil","coords":{"type":"Point","coordinates":[-55.45057946940989,-10.817286764675316]}},{"name":"Alta Floresta","country":"Brazil","coords":{"type":"Point","coordinates":[-55.909982952484654,-9.900030091494557]}},{"name":"Cuiaba","country":"Brazil","coords":{"type":"Point","coordinates":[-56.08693104905399,-15.567660648919798]}},{"name":"Pelotas","country":"Brazil","coords":{"type":"Point","coordinates":[-52.33002059081667,-31.750014222441337]}},{"name":"Caxias do Sul","country":"Brazil","coords":{"type":"Point","coordinates":[-51.170039715160954,-29.179990215269584]}},{"name":"Ponta Grossa","country":"Brazil","coords":{"type":"Point","coordinates":[-50.16004968423243,-25.090007305097004]}},{"name":"Teresina","country":"Brazil","coords":{"type":"Point","coordinates":[-42.781955056162246,-5.093054529086317]}},{"name":"Maceio","country":"Brazil","coords":{"type":"Point","coordinates":[-35.73192026609496,-9.61804964629198]}},{"name":"Vitoria da Conquista","country":"Brazil","coords":{"type":"Point","coordinates":[-40.83999841466397,-14.850012187868515]}},{"name":"Barreiras","country":"Brazil","coords":{"type":"Point","coordinates":[-45.00000289059204,-12.139996725618118]}},{"name":"Vila Velha","country":"Brazil","coords":{"type":"Point","coordinates":[-40.31798893386758,-20.367608216536382]}},{"name":"Natal","country":"Brazil","coords":{"type":"Point","coordinates":[-35.24195017331954,-5.778077315547307]}},{"name":"Thompson","country":"Canada","coords":{"type":"Point","coordinates":[-97.86662093279568,55.74994203604672]}},{"name":"Brandon","country":"Canada","coords":{"type":"Point","coordinates":[-99.94998213885873,49.833274759004894]}},{"name":"Fort Smith","country":"Canada","coords":{"type":"Point","coordinates":[-111.88333642764348,60.00001853345964]}},{"name":"Fort McMurray","country":"Canada","coords":{"type":"Point","coordinates":[-111.38331526878733,56.73331870434498]}},{"name":"Peace River","country":"Canada","coords":{"type":"Point","coordinates":[-117.28329105819887,56.23332338370494]}},{"name":"Fort St. John","country":"Canada","coords":{"type":"Point","coordinates":[-120.83328108913759,56.24998903311899]}},{"name":"Iqaluit","country":"Canada","coords":{"type":"Point","coordinates":[-68.50019174614948,63.75045937885693]}},{"name":"Cambridge Bay","country":"Canada","coords":{"type":"Point","coordinates":[-105.0333152687619,69.11695558590492]}},{"name":"Kugluktuk","country":"Canada","coords":{"type":"Point","coordinates":[-115.12535042300101,67.7986628235563]}},{"name":"Chesterfield Inlet","country":"Canada","coords":{"type":"Point","coordinates":[-90.70008162612646,63.338290221298394]}},{"name":"Arviat","country":"Canada","coords":{"type":"Point","coordinates":[-94.05860671826849,61.108592111187306]}},{"name":"Taloyoak","country":"Canada","coords":{"type":"Point","coordinates":[-93.53331954117675,69.5333126008806]}},{"name":"Igloolik","country":"Canada","coords":{"type":"Point","coordinates":[-81.7935921273588,69.25653506117754]}},{"name":"Dawson City","country":"Canada","coords":{"type":"Point","coordinates":[-139.41666874383435,64.06664369623621]}},{"name":"Timmins","country":"Canada","coords":{"type":"Point","coordinates":[-81.33331486176604,48.466588154181636]}},{"name":"North Bay","country":"Canada","coords":{"type":"Point","coordinates":[-79.44999312510487,46.300002053912635]}},{"name":"Kuujjuarapik","country":"Canada","coords":{"type":"Point","coordinates":[-77.76583235849654,55.281495177320835]}},{"name":"Kuujjuaq","country":"Canada","coords":{"type":"Point","coordinates":[-68.39999576991738,58.10000530916807]}},{"name":"Sydney","country":"Canada","coords":{"type":"Point","coordinates":[-60.179980714545934,46.06611452135951]}},{"name":"Labrador City","country":"Canada","coords":{"type":"Point","coordinates":[-66.91587447271087,52.94143129384804]}},{"name":"Ebolowa","country":"Cameroon","coords":{"type":"Point","coordinates":[11.150006468356594,2.900015481473247]}},{"name":"Bambari","country":"Central African Republic","coords":{"type":"Point","coordinates":[20.6672033271185,5.761959654661837]}},{"name":"Venice","country":"Italy","coords":{"type":"Point","coordinates":[12.334998737241506,45.4386592804716]}},{"name":"El Calafate","country":"Argentina","coords":{"type":"Point","coordinates":[-72.30001611498506,-50.333324362489634]}},{"name":"San Juan","country":"Argentina","coords":{"type":"Point","coordinates":[-68.51998844569908,-31.550026429471757]}},{"name":"Rawson","country":"Argentina","coords":{"type":"Point","coordinates":[-65.09999048019068,-43.30000689826875]}},{"name":"Neuquen","country":"Argentina","coords":{"type":"Point","coordinates":[-68.05999068365293,-38.95003985723571]}},{"name":"Trinidad","country":"Bolivia","coords":{"type":"Point","coordinates":[-64.89997684900499,-14.833372376670525]}},{"name":"Santa Rosa","country":"Argentina","coords":{"type":"Point","coordinates":[-64.29998763188019,-36.62000120162742]}},{"name":"San Carlos de Bariloche","country":"Argentina","coords":{"type":"Point","coordinates":[-71.29999963548892,-41.149957256333096]}},{"name":"Salta","country":"Argentina","coords":{"type":"Point","coordinates":[-65.41663781905908,-24.783359355876996]}},{"name":"Tucumán","country":"Argentina","coords":{"type":"Point","coordinates":[-65.21857004648632,-26.814054285032512]}},{"name":"Formosa","country":"Argentina","coords":{"type":"Point","coordinates":[-58.1828157975458,-26.17283526734093]}},{"name":"Santa Fe","country":"Argentina","coords":{"type":"Point","coordinates":[-60.69000126305065,-31.623872051216892]}},{"name":"Rosario","country":"Argentina","coords":{"type":"Point","coordinates":[-60.66825347745777,-32.94918367958837]}},{"name":"Campinas","country":"Brazil","coords":{"type":"Point","coordinates":[-47.10197560468208,-22.898065922386706]}},{"name":"Sorocaba","country":"Brazil","coords":{"type":"Point","coordinates":[-47.469981324846685,-23.49000160847595]}},{"name":"Ribeirao Preto","country":"Brazil","coords":{"type":"Point","coordinates":[-47.829985190408024,-21.170039857164625]}},{"name":"Petrolina","country":"Brazil","coords":{"type":"Point","coordinates":[-40.50996687983189,-9.380010153341345]}},{"name":"Bamenda","country":"Cameroon","coords":{"type":"Point","coordinates":[10.150015827076459,5.959983743204361]}},{"name":"Garoua","country":"Cameroon","coords":{"type":"Point","coordinates":[13.390024778912391,9.30001242974106]}},{"name":"Herat","country":"Afghanistan","coords":{"type":"Point","coordinates":[62.169993040826284,34.330009174633005]}},{"name":"Mazar-e Sharif","country":"Afghanistan","coords":{"type":"Point","coordinates":[67.1000280343356,36.699993712402886]}},{"name":"Battambang","country":"Cambodia","coords":{"type":"Point","coordinates":[103.20004675192797,13.100013040107967]}},{"name":"Siem Reap","country":"Cambodia","coords":{"type":"Point","coordinates":[103.85003291729504,13.366637592517804]}},{"name":"Malanje","country":"Angola","coords":{"type":"Point","coordinates":[16.340025592726363,-9.5400003877171]}},{"name":"Benguela","country":"Angola","coords":{"type":"Point","coordinates":[13.407233030865598,-12.57826454788551]}},{"name":"Lubango","country":"Angola","coords":{"type":"Point","coordinates":[13.490018675397152,-14.910008525759338]}},{"name":"Namibe","country":"Angola","coords":{"type":"Point","coordinates":[12.160022337501289,-15.190043112348917]}},{"name":"Tarija","country":"Bolivia","coords":{"type":"Point","coordinates":[-64.74998600427779,-21.516685364978514]}},{"name":"Bridgetown","country":"Barbados","coords":{"type":"Point","coordinates":[-59.61652673505159,13.10200258275114]}},{"name":"Annaba","country":"Algeria","coords":{"type":"Point","coordinates":[7.759980833577401,36.920006122885525]}},{"name":"Parakou","country":"Benin","coords":{"type":"Point","coordinates":[2.620036172098594,9.340009988334941]}},{"name":"Porto-Novo","country":"Benin","coords":{"type":"Point","coordinates":[2.61662552756718,6.483310973024231]}},{"name":"Constantine","country":"Algeria","coords":{"type":"Point","coordinates":[6.599948281489446,36.35998862613843]}},{"name":"Brest","country":"Belarus","coords":{"type":"Point","coordinates":[23.699989785464027,52.099983946839416]}},{"name":"Khulna","country":"Bangladesh","coords":{"type":"Point","coordinates":[89.55805491344267,22.841932857093184]}},{"name":"Francistown","country":"Botswana","coords":{"type":"Point","coordinates":[27.50001623404694,-21.170039857164625]}},{"name":"Mahalapye","country":"Botswana","coords":{"type":"Point","coordinates":[26.820006061518143,-23.099999573969228]}},{"name":"Serowe","country":"Botswana","coords":{"type":"Point","coordinates":[26.710038613601057,-22.390017070711167]}},{"name":"Katherine","country":"Australia","coords":{"type":"Point","coordinates":[132.2665929760027,-14.466624736695053]}},{"name":"Busselton","country":"Australia","coords":{"type":"Point","coordinates":[115.34865921942435,-33.65640948612088]}},{"name":"Mandurah","country":"Australia","coords":{"type":"Point","coordinates":[115.7470566656724,-32.52348259041253]}},{"name":"Broome","country":"Australia","coords":{"type":"Point","coordinates":[122.23076810262171,-17.9617706934622]}},{"name":"Kalgoorlie","country":"Australia","coords":{"type":"Point","coordinates":[121.46001745512592,-30.73539915082273]}},{"name":"Albany","country":"Australia","coords":{"type":"Point","coordinates":[117.89160477607516,-35.016946595501224]}},{"name":"Port Hedland","country":"Australia","coords":{"type":"Point","coordinates":[118.60603145251036,-20.310402405989237]}},{"name":"Karratha","country":"Australia","coords":{"type":"Point","coordinates":[116.87001338609741,-20.730376771225394]}},{"name":"Geraldton","country":"Australia","coords":{"type":"Point","coordinates":[114.59997106837989,-28.766630433366913]}},{"name":"Griffith","country":"Australia","coords":{"type":"Point","coordinates":[146.0400158276202,-34.290014222451475]}},{"name":"Orange","country":"Australia","coords":{"type":"Point","coordinates":[149.0999840893511,-33.27999835330678]}},{"name":"Dubbo","country":"Australia","coords":{"type":"Point","coordinates":[148.59732743244797,-32.25995725629741]}},{"name":"Armidale","country":"Australia","coords":{"type":"Point","coordinates":[151.66747595134063,-30.512311992618606]}},{"name":"Broken Hill","country":"Australia","coords":{"type":"Point","coordinates":[141.4331135652318,-31.949950338978624]}},{"name":"Port Lincoln","country":"Australia","coords":{"type":"Point","coordinates":[135.86657995518374,-34.73324298221888]}},{"name":"Whyalla","country":"Australia","coords":{"type":"Point","coordinates":[137.56141190506037,-33.02502683637874]}},{"name":"Portland","country":"Australia","coords":{"type":"Point","coordinates":[141.59000321367,-38.33999957403023]}},{"name":"Bendigo","country":"Australia","coords":{"type":"Point","coordinates":[144.28001989662346,-36.75999265670612]}},{"name":"Wangaratta","country":"Australia","coords":{"type":"Point","coordinates":[146.2999999584805,-36.36001707076707]}},{"name":"Windorah","country":"Australia","coords":{"type":"Point","coordinates":[142.65019689857002,-25.433242168379593]}},{"name":"Mount Isa","country":"Australia","coords":{"type":"Point","coordinates":[139.4900280346252,-20.72386554075655]}},{"name":"Rockhampton","country":"Australia","coords":{"type":"Point","coordinates":[150.52000077229968,-23.363911113683855]}},{"name":"Cairns","country":"Australia","coords":{"type":"Point","coordinates":[145.76333094607423,-16.887839858605503]}},{"name":"Gold Coast","country":"Australia","coords":{"type":"Point","coordinates":[153.4482458081185,-28.081504294041224]}},{"name":"Devonport","country":"Australia","coords":{"type":"Point","coordinates":[146.3311017441796,-41.19266756543732]}},{"name":"Bobo Dioulasso","country":"Burkina Faso","coords":{"type":"Point","coordinates":[-4.289981324673931,11.179975198303282]}},{"name":"Rajshahi","country":"Bangladesh","coords":{"type":"Point","coordinates":[88.6030744446889,24.37692960189088]}},{"name":"Mandalay","country":"Myanmar","coords":{"type":"Point","coordinates":[96.08308298964084,21.971934281243307]}},{"name":"Sittwe","country":"Myanmar","coords":{"type":"Point","coordinates":[92.88000484107937,20.139996764094462]}},{"name":"Bujumbura","country":"Burundi","coords":{"type":"Point","coordinates":[29.360006061528395,-3.376087220374643]}},{"name":"Pago Pago","country":"United States","coords":{"type":"Point","coordinates":[-170.7066451436991,-14.276610495157797]}},{"name":"Kingstown","country":"Saint Vincent and the Grenadines","coords":{"type":"Point","coordinates":[-61.212062420279324,13.14827882786841]}},{"name":"Castries","country":"Saint Lucia","coords":{"type":"Point","coordinates":[-61.00000818036955,14.00197348933034]}},{"name":"Basseterre","country":"Saint Kitts and Nevis","coords":{"type":"Point","coordinates":[-62.71700931969934,17.302030455489387]}},{"name":"Las Palmas","country":"Kingdom of Spain","coords":{"type":"Point","coordinates":[-15.429999024913855,28.09997601217316]}},{"name":"Berbera","country":"Somaliland","coords":{"type":"Point","coordinates":[45.016414752997264,10.435550352922803]}},{"name":"Port Louis","country":"Mauritius","coords":{"type":"Point","coordinates":[57.49999385460973,-20.166638571353246]}},{"name":"Gaza","country":"Indeterminate","coords":{"type":"Point","coordinates":[34.44501867548104,31.529999205546233]}},{"name":"Saint George's","country":"Grenada","coords":{"type":"Point","coordinates":[-61.74164322607476,12.052633401720414]}},{"name":"Papeete","country":"French Republic","coords":{"type":"Point","coordinates":[-149.56666935422652,-17.53336261105636]}},{"name":"Manama","country":"Bahrain","coords":{"type":"Point","coordinates":[50.58305171591019,26.236136290485945]}},{"name":"Freeport","country":"Bahamas, The","coords":{"type":"Point","coordinates":[-78.70001306325292,26.533275776164203]}},{"name":"Saint John's","country":"Antigua and Barbuda","coords":{"type":"Point","coordinates":[-61.85003381513866,17.118036518314113]}},{"name":"Taichung","country":"Taiwan","coords":{"type":"Point","coordinates":[120.681667032,24.1520774526]}},{"name":"Kozhikode","country":"India","coords":{"type":"Point","coordinates":[75.76804392705947,11.252381872346461]}},{"name":"Bhubaneshwar","country":"India","coords":{"type":"Point","coordinates":[85.82541453256835,20.27237393781212]}},{"name":"Jamshedpur","country":"India","coords":{"type":"Point","coordinates":[86.19557281707512,22.789481278316885]}},{"name":"Montevideo","country":"Uruguay","coords":{"type":"Point","coordinates":[-56.17299814703597,-34.856095707590725]}},{"name":"Helena","country":"United States","coords":{"type":"Point","coordinates":[-112.03529097679768,46.59274904284604]}},{"name":"Bismarck","country":"United States","coords":{"type":"Point","coordinates":[-100.7833162859975,46.80831728015164]}},{"name":"Boise","country":"United States","coords":{"type":"Point","coordinates":[-116.22748987004366,43.608590107287284]}},{"name":"San Jose","country":"United States","coords":{"type":"Point","coordinates":[-121.851934914877,37.30192878814046]}},{"name":"Sacramento","country":"United States","coords":{"type":"Point","coordinates":[-121.47198394645096,38.57696724029415]}},{"name":"Las Vegas","country":"United States","coords":{"type":"Point","coordinates":[-115.22195200469417,36.21194364002429]}},{"name":"Santa Fe","country":"United States","coords":{"type":"Point","coordinates":[-105.93723942241132,35.68692893375305]}},{"name":"Portland","country":"United States","coords":{"type":"Point","coordinates":[-122.68193593213289,45.521969681728024]}},{"name":"Salt Lake City","country":"United States","coords":{"type":"Point","coordinates":[-111.93199778104821,40.77696215404006]}},{"name":"Cheyenne","country":"United States","coords":{"type":"Point","coordinates":[-104.81971073588346,41.14000693670454]}},{"name":"Des Moines","country":"United States","coords":{"type":"Point","coordinates":[-93.61998091813024,41.57998008123735]}},{"name":"Omaha","country":"United States","coords":{"type":"Point","coordinates":[-96.00999007341329,41.24000083318924]}},{"name":"Oklahoma City","country":"United States","coords":{"type":"Point","coordinates":[-97.52062937278737,35.47198880603685]}},{"name":"Pierre","country":"United States","coords":{"type":"Point","coordinates":[-100.35055200376922,44.368337014842325]}},{"name":"San Antonio","country":"United States","coords":{"type":"Point","coordinates":[-98.50925119896328,29.48927904852593]}},{"name":"San Cristobal","country":"Venezuela","coords":{"type":"Point","coordinates":[-72.24996749031038,7.770002460659498]}},{"name":"Valencia","country":"Venezuela","coords":{"type":"Point","coordinates":[-67.98196726329434,10.231927363878526]}},{"name":"Jackson","country":"United States","coords":{"type":"Point","coordinates":[-90.18499678725715,32.29881532696845]}},{"name":"Raleigh","country":"United States","coords":{"type":"Point","coordinates":[-78.64469344248448,35.818781350745724]}},{"name":"Cleveland","country":"United States","coords":{"type":"Point","coordinates":[-81.69694406998963,41.47193265371732]}},{"name":"Cincinnati","country":"United States","coords":{"type":"Point","coordinates":[-84.45886850847734,39.16383064361685]}},{"name":"Nashville","country":"United States","coords":{"type":"Point","coordinates":[-86.78193084572632,36.17192024321406]}},{"name":"Memphis","country":"United States","coords":{"type":"Point","coordinates":[-90.00194101826514,35.12193265369183]}},{"name":"Norfolk","country":"United States","coords":{"type":"Point","coordinates":[-76.28000573902449,36.84995871891391]}},{"name":"Milwaukee","country":"United States","coords":{"type":"Point","coordinates":[-87.92191294208499,43.05460090730418]}},{"name":"Buffalo","country":"United States","coords":{"type":"Point","coordinates":[-78.88194793553828,42.88192410880083]}},{"name":"Pittsburgh","country":"United States","coords":{"type":"Point","coordinates":[-80.00193125260023,40.43194445384313]}},{"name":"Ciudad Guayana","country":"Venezuela","coords":{"type":"Point","coordinates":[-62.619986818071425,8.37001751600053]}},{"name":"Lome","country":"Togo","coords":{"type":"Point","coordinates":[1.22081126074562,6.133882930268385]}},{"name":"Tunis","country":"Tunisia","coords":{"type":"Point","coordinates":[10.179678099212026,36.80277813623144]}},{"name":"Kodiak","country":"United States","coords":{"type":"Point","coordinates":[-152.4069869405009,57.78999839184928]}},{"name":"Cold Bay","country":"United States","coords":{"type":"Point","coordinates":[-162.71509159549004,55.20000144359659]}},{"name":"Bethel","country":"United States","coords":{"type":"Point","coordinates":[-161.75579614463985,60.79330344557201]}},{"name":"Point Hope","country":"United States","coords":{"type":"Point","coordinates":[-166.80802006230326,68.34772605302419]}},{"name":"Barrow","country":"United States","coords":{"type":"Point","coordinates":[-156.78857995809653,71.29056968096575]}},{"name":"Nome","country":"United States","coords":{"type":"Point","coordinates":[-165.40637435103463,64.50610007644633]}},{"name":"Valdez","country":"United States","coords":{"type":"Point","coordinates":[-146.3482869893047,61.135995706315725]}},{"name":"Juneau","country":"United States","coords":{"type":"Point","coordinates":[-134.4199969908846,58.31412660636943]}},{"name":"Fairbanks","country":"United States","coords":{"type":"Point","coordinates":[-147.71065861203158,64.83698427241126]}},{"name":"Prudhoe Bay","country":"United States","coords":{"type":"Point","coordinates":[-148.6693597839104,70.29218100908662]}},{"name":"Sevastapol","country":"Ukraine","coords":{"type":"Point","coordinates":[33.46497513706561,44.59997662259076]}},{"name":"Abu Dhabi","country":"United Arab Emirates","coords":{"type":"Point","coordinates":[54.36659338259199,24.466683572379907]}},{"name":"Ashgabat","country":"Turkmenistan","coords":{"type":"Point","coordinates":[58.38329911177465,37.949994933110986]}},{"name":"Samarqand","country":"Uzbekistan","coords":{"type":"Point","coordinates":[66.94499873745991,39.6700191437298]}},{"name":"Lusaka","country":"Zambia","coords":{"type":"Point","coordinates":[28.28138173611427,-15.414698409335926]}},{"name":"Harare","country":"Zimbabwe","coords":{"type":"Point","coordinates":[31.042763572062825,-17.815843835777798]}},{"name":"Bulawayo","country":"Zimbabwe","coords":{"type":"Point","coordinates":[28.580001992514894,-20.16999753945231]}},{"name":"Dili","country":"East Timor","coords":{"type":"Point","coordinates":[125.57945593170507,-8.559388408546454]}},{"name":"Port Vila","country":"Vanuatu","coords":{"type":"Point","coordinates":[168.31664058356864,-17.733350404025828]}},{"name":"Tegucigalpa","country":"Honduras","coords":{"type":"Point","coordinates":[-87.2194751979415,14.103990759076396]}},{"name":"Georgetown","country":"Guyana","coords":{"type":"Point","coordinates":[-58.167028647480606,6.801973692752028]}},{"name":"Reykjavík","country":"Iceland","coords":{"type":"Point","coordinates":[-21.950014487179544,64.15002361973922]}},{"name":"Port-au-Prince","country":"Haiti","coords":{"type":"Point","coordinates":[-72.33798044690553,18.54297045473237]}},{"name":"Glasgow","country":"United Kingdom","coords":{"type":"Point","coordinates":[-4.252653094744971,55.87635058183474]}},{"name":"Kampala","country":"Uganda","coords":{"type":"Point","coordinates":[32.581377667121046,0.318604813383331]}},{"name":"Aden","country":"Yemen","coords":{"type":"Point","coordinates":[45.00949011107019,12.779722512762874]}},{"name":"Paramaribo","country":"Suriname","coords":{"type":"Point","coordinates":[-55.16703088542437,5.835030129922586]}},{"name":"Seville","country":"Kingdom of Spain","coords":{"type":"Point","coordinates":[-5.980007366347422,37.40501527816093]}},{"name":"Zinder","country":"Niger","coords":{"type":"Point","coordinates":[8.98331701522278,13.79999615371753]}},{"name":"Niamey","country":"Niger","coords":{"type":"Point","coordinates":[2.114710186530374,13.51865181050647]}},{"name":"Port Sudan","country":"Sudan","coords":{"type":"Point","coordinates":[37.21642573929415,19.61579103492562]}},{"name":"Dushanbe","country":"Tajikistan","coords":{"type":"Point","coordinates":[68.77387935270173,38.56003521631658]}},{"name":"Cusco","country":"Peru","coords":{"type":"Point","coordinates":[-71.97215499030932,-13.525028463904903]}},{"name":"Tacna","country":"Peru","coords":{"type":"Point","coordinates":[-70.2500120459664,-18.000000794651953]}},{"name":"Trujillo","country":"Peru","coords":{"type":"Point","coordinates":[-79.01996769378803,-8.120035381200978]}},{"name":"Ica","country":"Peru","coords":{"type":"Point","coordinates":[-75.72549178231645,-14.06799273799561]}},{"name":"Asuncion","country":"Paraguay","coords":{"type":"Point","coordinates":[-57.643451027901335,-25.294457117057675]}},{"name":"Managua","country":"Nicaragua","coords":{"type":"Point","coordinates":[-86.27043751890119,12.154962438756115]}},{"name":"Freetown","country":"Sierra Leone","coords":{"type":"Point","coordinates":[-13.236161599012746,8.471957271098177]}},{"name":"Agadez","country":"Niger","coords":{"type":"Point","coordinates":[7.982809609619949,16.99587343237613]}},{"name":"Niyala","country":"Sudan","coords":{"type":"Point","coordinates":[24.889994668281304,12.059973163801544]}},{"name":"Wau","country":"South Sudan","coords":{"type":"Point","coordinates":[27.989960488606243,7.699980894904115]}},{"name":"Dongola","country":"Sudan","coords":{"type":"Point","coordinates":[30.48329667025689,19.16659364722841]}},{"name":"Kassala","country":"Sudan","coords":{"type":"Point","coordinates":[36.390016234082566,15.459972350013118]}},{"name":"Tromsø","country":"Kingdom of Norway","coords":{"type":"Point","coordinates":[18.99202524580295,69.63507622699092]}},{"name":"Trondheim","country":"Kingdom of Norway","coords":{"type":"Point","coordinates":[10.416666217702641,63.41665753086909]}},{"name":"Bergen","country":"Kingdom of Norway","coords":{"type":"Point","coordinates":[5.324522256093644,60.39100242017997]}},{"name":"Islamabad","country":"Pakistan","coords":{"type":"Point","coordinates":[73.16468862105955,33.70194180895959]}},{"name":"Multan","country":"Pakistan","coords":{"type":"Point","coordinates":[71.45306183068806,30.20192288804725]}},{"name":"Hyderabad","country":"Pakistan","coords":{"type":"Point","coordinates":[68.37304311322782,25.381932857103266]}},{"name":"Peshawar","country":"Pakistan","coords":{"type":"Point","coordinates":[71.53305694787582,34.00696195056224]}},{"name":"Kathmandu","country":"Nepal","coords":{"type":"Point","coordinates":[85.31469635222788,27.718637772477223]}},{"name":"Nacala","country":"Mozambique","coords":{"type":"Point","coordinates":[40.71502355831859,-14.518611227580777]}},{"name":"Bloemfontein","country":"South Africa","coords":{"type":"Point","coordinates":[26.22991288117737,-29.119993877378704]}},{"name":"Pretoria","country":"South Africa","coords":{"type":"Point","coordinates":[28.22748321723384,-25.704974695184433]}},{"name":"Port Moresby","country":"Papua New Guinea","coords":{"type":"Point","coordinates":[147.19250362059358,-9.464707825867777]}},{"name":"Honiara","country":"Solomon Islands","coords":{"type":"Point","coordinates":[159.94976573360566,-9.437994295089595]}},{"name":"Panama City","country":"Panama","coords":{"type":"Point","coordinates":[-79.53498301041077,8.969963049094872]}},{"name":"Fez","country":"Morocco","coords":{"type":"Point","coordinates":[-5.00232309800316,34.0565454873464]}},{"name":"Rabat","country":"Morocco","coords":{"type":"Point","coordinates":[-6.83640815612614,34.02530731107282]}},{"name":"Marrakesh","country":"Morocco","coords":{"type":"Point","coordinates":[-8.001933286817405,31.63193896064405]}},{"name":"Chisinau","country":"Moldova","coords":{"type":"Point","coordinates":[28.85771113965143,47.005023619670624]}},